[{"fecha":"07-05-23","local_id":"1","local_nombre":"CRUZ VERDE ","comuna_nombre":"QUILLOTA","localidad_nombre":"QUILLOTA","local_direccion":"OHIGGINS 195, LOCAL 1","funcionamiento_hora_apertura":"10:00:00","funcionamiento_hora_cierre":"18:30:00","local_telefono":"+5633332269467","local_lat":"-32.8793428949969","local_lng":"-71.2467871500868","funcionamiento_dia":"domingo","fk_region":"6","fk_comuna":"69","fk_localidad":"32"},{"fecha":"07-05-23","local_id":"2","local_nombre":"CRUZ VERDE","comuna_nombre":"LA CALERA","localidad_nombre":"LA CALERA","local_direccion":"J.J. PEREZ 202","funcionamiento_hora_apertura":"09:00:00","funcionamiento_hora_cierre":"19:30:00","local_telefono":"+56332724714","local_lat":"-32.788066282624","local_lng":"-71.1897310126255","funcionamiento_dia":"domingo","fk_region":"6","fk_comuna":"56","fk_localidad":"12"},{"fecha":"07-05-23","local_id":"8","local_nombre":"AHUMADA","comuna_nombre":"LA CALERA","localidad_nombre":"LA CALERA","local_direccion":"PROLONGACION JJ. PEREZ 12010","funcionamiento_hora_apertura":"09:00:00","funcionamiento_hora_cierre":"19:00:00","local_telefono":"+56026313722","local_lat":"-32.7908926027982","local_lng":"-71.1920957384256","funcionamiento_dia":"domingo","fk_region":"6","fk_comuna":"56","fk_localidad":"12"},{"fecha":"07-05-23","local_id":"9","local_nombre":"AHUMADA","comuna_nombre":"QUILLOTA","localidad_nombre":"QUILLOTA","local_direccion":"AV. 21 DE MAYO 311","funcionamiento_hora_apertura":"08:30:00","funcionamiento_hora_cierre":"19:00:00","local_telefono":"+5633314997","local_lat":"-32.8743896181991","local_lng":"-71.2419067293266","funcionamiento_dia":"domingo","fk_region":"6","fk_comuna":"69","fk_localidad":"32"},{"fecha":"07-05-23","local_id":"11","local_nombre":"SALCOBRAND","comuna_nombre":"LA CALERA","localidad_nombre":"LA CALERA","local_direccion":"J.J. PEREZ 205","funcionamiento_hora_apertura":"10:00:00","funcionamiento_hora_cierre":"19:30:00","local_telefono":"+56332225450","local_lat":"-32.7880523605412","local_lng":"-71.1894957968335","funcionamiento_dia":"domingo","fk_region":"6","fk_comuna":"56","fk_localidad":"12"},{"fecha":"07-05-23","local_id":"17","local_nombre":"CRUZ VERDE","comuna_nombre":"QUILLOTA","localidad_nombre":"QUILLOTA","local_direccion":"CHACABUCO 281","funcionamiento_hora_apertura":"10:00:00","funcionamiento_hora_cierre":"20:00:00","local_telefono":"+56332319578","local_lat":"-32.878335491624","local_lng":"-71.246141889165","funcionamiento_dia":"domingo","fk_region":"6","fk_comuna":"69","fk_localidad":"32"},{"fecha":"07-05-23","local_id":"20","local_nombre":"SALCOBRAND","comuna_nombre":"LIMACHE","localidad_nombre":"LIMACHE","local_direccion":"URMENETA 68","funcionamiento_hora_apertura":"10:30:00","funcionamiento_hora_cierre":"19:30:00","local_telefono":"+560224223300 anexo 5300","local_lat":"-32.9851431062104","local_lng":"-71.2763421550883","funcionamiento_dia":"domingo","fk_region":"6","fk_comuna":"59","fk_localidad":"17"},{"fecha":"07-05-23","local_id":"23","local_nombre":"SAN NICOLAS","comuna_nombre":"LA CALERA","localidad_nombre":"LA CALERA","local_direccion":"J.J. PEREZ N\u00b0 396","funcionamiento_hora_apertura":"10:30:00","funcionamiento_hora_cierre":"15:30:00","local_telefono":"+56332229552","local_lat":"-32.7862582411004","local_lng":"-71.189985617592","funcionamiento_dia":"domingo","fk_region":"6","fk_comuna":"56","fk_localidad":"12"},{"fecha":"07-05-23","local_id":"24","local_nombre":"TAMANACO","comuna_nombre":"LA CALERA","localidad_nombre":"LA CALERA","local_direccion":"ALDUNATE 222","funcionamiento_hora_apertura":"10:00:00","funcionamiento_hora_cierre":"14:00:00","local_telefono":"+56332222201","local_lat":"-32.7881186052151","local_lng":"-71.1908639639646","funcionamiento_dia":"domingo","fk_region":"6","fk_comuna":"56","fk_localidad":"12"},{"fecha":"07-05-23","local_id":"25","local_nombre":"LA CRUZ","comuna_nombre":"LA CRUZ","localidad_nombre":"LA CRUZ","local_direccion":"21 DE MAYO N\u00b0 5481","funcionamiento_hora_apertura":"09:00:00","funcionamiento_hora_cierre":"21:00:00","local_telefono":"+56332254902","local_lat":"-32.8252324978247","local_lng":"-71.2268391982971","funcionamiento_dia":"domingo","fk_region":"6","fk_comuna":"57","fk_localidad":"13"},{"fecha":"07-05-23","local_id":"27","local_nombre":"CRUZ VERDE","comuna_nombre":"LIMACHE","localidad_nombre":"LIMACHE","local_direccion":"URMENETA 96","funcionamiento_hora_apertura":"10:30:00","funcionamiento_hora_cierre":"20:30:00","local_telefono":"+56332414551","local_lat":"-32.9853313679932","local_lng":"-71.2759083062112","funcionamiento_dia":"domingo","fk_region":"6","fk_comuna":"59","fk_localidad":"17"},{"fecha":"07-05-23","local_id":"37","local_nombre":"SALCOBRAND","comuna_nombre":"LA CRUZ","localidad_nombre":"LA CRUZ","local_direccion":"21 DE MAYO 5628, LOCAL 1, LA CRUZ","funcionamiento_hora_apertura":"10:00:00","funcionamiento_hora_cierre":"18:00:00","local_telefono":"+56332320677","local_lat":"-32.8235326035501","local_lng":"-71.2260811844591","funcionamiento_dia":"domingo","fk_region":"6","fk_comuna":"57","fk_localidad":"13"},{"fecha":"07-05-23","local_id":"39","local_nombre":"CRUZ VERDE","comuna_nombre":"LIMACHE","localidad_nombre":"LIMACHE","local_direccion":"PALMIRA ROMANO 405","funcionamiento_hora_apertura":"10:00:00","funcionamiento_hora_cierre":"18:30:00","local_telefono":"+56332414665","local_lat":"-33.0021934734243","local_lng":"-71.2680155185573","funcionamiento_dia":"domingo","fk_region":"6","fk_comuna":"59","fk_localidad":"17"},{"fecha":"07-05-23","local_id":"43","local_nombre":"AHUMADA","comuna_nombre":"QUILPUE","localidad_nombre":"QUILPUE","local_direccion":"DIEGO PORTALES N\u00b0 802","funcionamiento_hora_apertura":"09:00:00","funcionamiento_hora_cierre":"19:00:00","local_telefono":"+563219","local_lat":"-33.0469493869154","local_lng":"-71.4416812900202","funcionamiento_dia":"domingo","fk_region":"6","fk_comuna":"70","fk_localidad":"33"},{"fecha":"07-05-23","local_id":"44","local_nombre":"AHUMADA","comuna_nombre":"QUILPUE","localidad_nombre":"QUILPUE","local_direccion":"AV.FREIRE N\u00b0 2414 LOCAL 1082","funcionamiento_hora_apertura":"09:00:00","funcionamiento_hora_cierre":"19:00:00","local_telefono":"+56650226316549","local_lat":"-33.0452029096277","local_lng":"-71.420263192104","funcionamiento_dia":"domingo","fk_region":"6","fk_comuna":"70","fk_localidad":"33"},{"fecha":"07-05-23","local_id":"46","local_nombre":"CRUZ VERDE","comuna_nombre":"QUILPUE","localidad_nombre":"QUILPUE","local_direccion":"AV. LOS CARRERA N\u00ba 754, PRIMER NIVEL MALL PASEO QUILPU\u00e9, LOCAL 100-102","funcionamiento_hora_apertura":"09:30:00","funcionamiento_hora_cierre":"20:30:00","local_telefono":"+56322913124","local_lat":"-33.0480884691307","local_lng":"-71.4429118882056","funcionamiento_dia":"domingo","fk_region":"6","fk_comuna":"70","fk_localidad":"33"},{"fecha":"07-05-23","local_id":"51","local_nombre":"ECOFARMACIAS","comuna_nombre":"QUILPUE","localidad_nombre":"QUILPUE","local_direccion":"PORTALES N\u00b0 776","funcionamiento_hora_apertura":"09:00:00","funcionamiento_hora_cierre":"22:00:00","local_telefono":"+5641405","local_lat":"-33.0475305612827","local_lng":"-71.4423932657459","funcionamiento_dia":"domingo","fk_region":"6","fk_comuna":"70","fk_localidad":"33"},{"fecha":"07-05-23","local_id":"55","local_nombre":"SALCOBRAND","comuna_nombre":"QUILPUE","localidad_nombre":"QUILPUE","local_direccion":"CLAUDIO VICU\u00d1A N\u00b0 790","funcionamiento_hora_apertura":"10:00:00","funcionamiento_hora_cierre":"19:30:00","local_telefono":"+56322913769","local_lat":"-33.0465241401074","local_lng":"-71.4426759575431","funcionamiento_dia":"domingo","fk_region":"6","fk_comuna":"70","fk_localidad":"33"},{"fecha":"07-05-23","local_id":"56","local_nombre":"CRUZ VERDE","comuna_nombre":"QUILPUE","localidad_nombre":"QUILPUE","local_direccion":"RAM\u00d3N FREIRE N\u00b0 2414, LOCAL 1028, BELLOTO","funcionamiento_hora_apertura":"09:00:00","funcionamiento_hora_cierre":"18:00:00","local_telefono":"+56332984011","local_lat":"-33.0450095219052","local_lng":"-71.4218638538971","funcionamiento_dia":"domingo","fk_region":"6","fk_comuna":"70","fk_localidad":"33"},{"fecha":"07-05-23","local_id":"57","local_nombre":"CRUZ VERDE","comuna_nombre":"QUILPUE","localidad_nombre":"QUILPUE","local_direccion":"AV. CLAUDIO VICU\u00d1A N\u00b0 791","funcionamiento_hora_apertura":"10:00:00","funcionamiento_hora_cierre":"18:30:00","local_telefono":"+56322924381","local_lat":"-33.0464004865427","local_lng":"-71.4425440645484","funcionamiento_dia":"domingo","fk_region":"6","fk_comuna":"70","fk_localidad":"33"},{"fecha":"07-05-23","local_id":"58","local_nombre":"CRUZ VERDE","comuna_nombre":"QUILPUE","localidad_nombre":"QUILPUE","local_direccion":"AV. FREIRE N\u00b0 471, VILLA HILTON BELLOTO","funcionamiento_hora_apertura":"10:00:00","funcionamiento_hora_cierre":"18:30:00","local_telefono":"+56322943523","local_lat":"-33.0464773594431","local_lng":"-71.4042596331478","funcionamiento_dia":"domingo","fk_region":"6","fk_comuna":"70","fk_localidad":"33"},{"fecha":"07-05-23","local_id":"59","local_nombre":"AHUMADA","comuna_nombre":"QUILPUE","localidad_nombre":"LOS PINOS","local_direccion":"LAS BARRANCAS 2491 L 3C Y 4D","funcionamiento_hora_apertura":"08:30:00","funcionamiento_hora_cierre":"19:00:00","local_telefono":"+5632232740640","local_lat":"-33.0661975068523","local_lng":"-71.4228941507292","funcionamiento_dia":"domingo","fk_region":"6","fk_comuna":"70","fk_localidad":"54"},{"fecha":"07-05-23","local_id":"61","local_nombre":"ECONOMICA","comuna_nombre":"PUCHUNCAVI","localidad_nombre":"PUCHUNCAVI","local_direccion":"SANTIAGO TORRES N\u00b0 149 PUCHUNCAVI","funcionamiento_hora_apertura":"09:00:00","funcionamiento_hora_cierre":"19:30:00","local_telefono":"+56322791499","local_lat":"-32.7264534554681","local_lng":"-71.4141798241623","funcionamiento_dia":"domingo","fk_region":"6","fk_comuna":"67","fk_localidad":"30"},{"fecha":"07-05-23","local_id":"63","local_nombre":"CRUZ VERDE","comuna_nombre":"QUINTERO","localidad_nombre":"QUINTERO","local_direccion":"CABO ORTIZ N\u00b0 189","funcionamiento_hora_apertura":"08:30:00","funcionamiento_hora_cierre":"18:30:00","local_telefono":"+56322931269","local_lat":"-32.784714476685","local_lng":"-71.5274971892257","funcionamiento_dia":"domingo","fk_region":"6","fk_comuna":"71","fk_localidad":"34"},{"fecha":"07-05-23","local_id":"65","local_nombre":"ECONOMICA","comuna_nombre":"QUINTERO","localidad_nombre":"QUINTERO","local_direccion":"PILOTO ALCAYAGA N\u00b0 1919","funcionamiento_hora_apertura":"10:00:00","funcionamiento_hora_cierre":"19:00:00","local_telefono":"+56322932576","local_lat":"-32.7856824763479","local_lng":"-71.526446430538","funcionamiento_dia":"domingo","fk_region":"6","fk_comuna":"71","fk_localidad":"34"},{"fecha":"07-05-23","local_id":"68","local_nombre":"AHUMADA","comuna_nombre":"VILLA ALEMANA","localidad_nombre":"VILLA ALEMANA","local_direccion":"AV. VALPARAISO N\u00b0 702","funcionamiento_hora_apertura":"10:00:00","funcionamiento_hora_cierre":"18:00:00","local_telefono":"+560026313159","local_lat":"-33.0441804145477","local_lng":"-71.3740159557867","funcionamiento_dia":"domingo","fk_region":"6","fk_comuna":"79","fk_localidad":"40"},{"fecha":"07-05-23","local_id":"71","local_nombre":"ECOFARMACIAS","comuna_nombre":"VILLA ALEMANA","localidad_nombre":"VILLA ALEMANA","local_direccion":"AV.VALPARAISO N\u00b0 855","funcionamiento_hora_apertura":"09:00:00","funcionamiento_hora_cierre":"22:00:00","local_telefono":"+56322541409","local_lat":"-33.0444421989303","local_lng":"-71.3763676925287","funcionamiento_dia":"domingo","fk_region":"6","fk_comuna":"79","fk_localidad":"40"},{"fecha":"07-05-23","local_id":"72","local_nombre":"ECOFARMACIAS","comuna_nombre":"VILLA ALEMANA","localidad_nombre":"VILLA ALEMANA","local_direccion":"LATORRE N\u00b0 51","funcionamiento_hora_apertura":"09:00:00","funcionamiento_hora_cierre":"20:30:00","local_telefono":"+56322959620","local_lat":"-33.0432588449444","local_lng":"-71.3736379119588","funcionamiento_dia":"domingo","fk_region":"6","fk_comuna":"79","fk_localidad":"40"},{"fecha":"07-05-23","local_id":"73","local_nombre":"SALCOBRAND","comuna_nombre":"VILLA ALEMANA","localidad_nombre":"VILLA ALEMANA","local_direccion":"LATORRE N\u00b0 2 Y 6","funcionamiento_hora_apertura":"10:00:00","funcionamiento_hora_cierre":"18:30:00","local_telefono":"+5632224223300anexo5040","local_lat":"-33.0442033292095","local_lng":"-71.3737596169375","funcionamiento_dia":"domingo","fk_region":"6","fk_comuna":"79","fk_localidad":"40"},{"fecha":"07-05-23","local_id":"76","local_nombre":"SALCOBRAND","comuna_nombre":"VILLA ALEMANA","localidad_nombre":"VILLA ALEMANA","local_direccion":"AV. VALPARA\u00cdSO N\u00b0 1982, LOCAL N\u00b07","funcionamiento_hora_apertura":"10:00:00","funcionamiento_hora_cierre":"22:00:00","local_telefono":"+56322944340","local_lat":"-33.0452510168172","local_lng":"-71.3906612023864","funcionamiento_dia":"domingo","fk_region":"6","fk_comuna":"79","fk_localidad":"40"},{"fecha":"07-05-23","local_id":"77","local_nombre":"CRUZ VERDE","comuna_nombre":"VILLA ALEMANA","localidad_nombre":"VILLA ALEMANA","local_direccion":"AV. VALPARA\u00cdSO N\u00b0 691","funcionamiento_hora_apertura":"10:00:00","funcionamiento_hora_cierre":"18:30:00","local_telefono":"+56322533462","local_lat":"-33.044428690768","local_lng":"-71.3742367487894","funcionamiento_dia":"domingo","fk_region":"6","fk_comuna":"79","fk_localidad":"40"},{"fecha":"07-05-23","local_id":"81","local_nombre":"AHUMADA","comuna_nombre":"VI\u00d1A DEL MAR","localidad_nombre":"VI\u00d1A DEL MAR URGENCIA 2","local_direccion":"AV. LIBERTAD N\u00b0 335","funcionamiento_hora_apertura":"00:00:00","funcionamiento_hora_cierre":"00:00:00","local_telefono":"+560226313145","local_lat":"-33.0189172526154","local_lng":"-71.5510733225955","funcionamiento_dia":"domingo","fk_region":"6","fk_comuna":"80","fk_localidad":"447"},{"fecha":"07-05-23","local_id":"83","local_nombre":"AHUMADA","comuna_nombre":"VI\u00d1A DEL MAR","localidad_nombre":"RE\u00d1ACA","local_direccion":"AV.RAFAEL SOTOMAYOR N\u00b0230","funcionamiento_hora_apertura":"10:00:00","funcionamiento_hora_cierre":"19:00:00","local_telefono":"+56026313153","local_lat":"-32.9707421611196","local_lng":"-71.5426159694221","funcionamiento_dia":"domingo","fk_region":"6","fk_comuna":"80","fk_localidad":"36"},{"fecha":"07-05-23","local_id":"85","local_nombre":"AHUMADA","comuna_nombre":"VI\u00d1A DEL MAR","localidad_nombre":"PLAN DE VI\u00d1A","local_direccion":"1 NORTE N\u00b0 2901 L - 4018 (JUMBO)","funcionamiento_hora_apertura":"09:00:00","funcionamiento_hora_cierre":"19:00:00","local_telefono":"+56026313238","local_lat":"-33.0355737409604","local_lng":"-71.5239136592369","funcionamiento_dia":"domingo","fk_region":"6","fk_comuna":"80","fk_localidad":"28"},{"fecha":"07-05-23","local_id":"87","local_nombre":"AHUMADA","comuna_nombre":"VI\u00d1A DEL MAR","localidad_nombre":"PLAN DE VI\u00d1A","local_direccion":"QUILLOTA N\u00b0 441","funcionamiento_hora_apertura":"09:00:00","funcionamiento_hora_cierre":"19:00:00","local_telefono":"+56026313281","local_lat":"-33.0183395945727","local_lng":"-71.5466899723292","funcionamiento_dia":"domingo","fk_region":"6","fk_comuna":"80","fk_localidad":"28"},{"fecha":"07-05-23","local_id":"88","local_nombre":"AHUMADA","comuna_nombre":"VI\u00d1A DEL MAR","localidad_nombre":"PLAN DE VI\u00d1A","local_direccion":"15 NORTE N\u00b0 961 L- 115-118","funcionamiento_hora_apertura":"09:00:00","funcionamiento_hora_cierre":"19:00:00","local_telefono":"+56026313371","local_lat":"-33.0076875960076","local_lng":"-71.5459662600821","funcionamiento_dia":"domingo","fk_region":"6","fk_comuna":"80","fk_localidad":"28"},{"fecha":"07-05-23","local_id":"89","local_nombre":"AHUMADA","comuna_nombre":"VI\u00d1A DEL MAR","localidad_nombre":"PLAN DE VI\u00d1A","local_direccion":"15 NORTE N\u00b0 961 L - 248","funcionamiento_hora_apertura":"10:00:00","funcionamiento_hora_cierre":"19:00:00","local_telefono":"+56026313403","local_lat":"-33.0077437841787","local_lng":"-71.545422102375","funcionamiento_dia":"domingo","fk_region":"6","fk_comuna":"80","fk_localidad":"28"},{"fecha":"07-05-23","local_id":"91","local_nombre":"AHUMADA","comuna_nombre":"VI\u00d1A DEL MAR","localidad_nombre":"RE\u00d1ACA","local_direccion":"AV. EDMUNDO ELUCHANS N\u00b0 1850 L-1","funcionamiento_hora_apertura":"09:00:00","funcionamiento_hora_cierre":"19:30:00","local_telefono":"+56026313809","local_lat":"-32.9579725184071","local_lng":"-71.544036119172","funcionamiento_dia":"domingo","fk_region":"6","fk_comuna":"80","fk_localidad":"36"},{"fecha":"07-05-23","local_id":"94","local_nombre":"CRUZ VERDE","comuna_nombre":"VI\u00d1A DEL MAR","localidad_nombre":"VI\u00d1A DEL MAR URGENCIA","local_direccion":"AV. VALPARAISO N\u00b0 404","funcionamiento_hora_apertura":"00:00:00","funcionamiento_hora_cierre":"00:00:00","local_telefono":"+56322714044","local_lat":"-33.024369299178","local_lng":"-71.5569460874684","funcionamiento_dia":"domingo","fk_region":"6","fk_comuna":"80","fk_localidad":"41"},{"fecha":"07-05-23","local_id":"95","local_nombre":"CRUZ VERDE","comuna_nombre":"VI\u00d1A DEL MAR","localidad_nombre":"PLAN DE VI\u00d1A","local_direccion":"AV.LIBERTAD N\u00b0 1348 L-22","funcionamiento_hora_apertura":"10:30:00","funcionamiento_hora_cierre":"21:30:00","local_telefono":"+56322382207","local_lat":"-33.0084699139327","local_lng":"-71.5482788748867","funcionamiento_dia":"domingo","fk_region":"6","fk_comuna":"80","fk_localidad":"28"},{"fecha":"07-05-23","local_id":"97","local_nombre":"CRUZ VERDE","comuna_nombre":"VI\u00d1A DEL MAR","localidad_nombre":"PLAN DE VI\u00d1A","local_direccion":"AV.LIBERTAD N\u00b0 825","funcionamiento_hora_apertura":"08:30:00","funcionamiento_hora_cierre":"18:30:00","local_telefono":"+56322976948","local_lat":"-33.0139055209759","local_lng":"-71.5501155466152","funcionamiento_dia":"domingo","fk_region":"6","fk_comuna":"80","fk_localidad":"28"},{"fecha":"07-05-23","local_id":"98","local_nombre":"CRUZ VERDE","comuna_nombre":"VI\u00d1A DEL MAR","localidad_nombre":"PLAN DE VI\u00d1A","local_direccion":"QUILLOTA N\u00b0 493","funcionamiento_hora_apertura":"08:30:00","funcionamiento_hora_cierre":"18:30:00","local_telefono":"+56322680656","local_lat":"-33.0181329872639","local_lng":"-71.5466519206006","funcionamiento_dia":"domingo","fk_region":"6","fk_comuna":"80","fk_localidad":"28"},{"fecha":"07-05-23","local_id":"99","local_nombre":"CRUZ VERDE","comuna_nombre":"VI\u00d1A DEL MAR","localidad_nombre":"PLAN DE VI\u00d1A","local_direccion":"AV.VALPARAISO N\u00b0 598","funcionamiento_hora_apertura":"08:30:00","funcionamiento_hora_cierre":"18:30:00","local_telefono":"+56322698083","local_lat":"-33.0248238853323","local_lng":"-71.5541228020944","funcionamiento_dia":"domingo","fk_region":"6","fk_comuna":"80","fk_localidad":"28"},{"fecha":"07-05-23","local_id":"100","local_nombre":"CRUZ VERDE","comuna_nombre":"VI\u00d1A DEL MAR","localidad_nombre":"RECREO","local_direccion":"J.M.CARRERA N\u00b0 201","funcionamiento_hora_apertura":"08:30:00","funcionamiento_hora_cierre":"18:30:00","local_telefono":"+56322620782","local_lat":"-33.0275549545313","local_lng":"-71.5734684105632","funcionamiento_dia":"domingo","fk_region":"6","fk_comuna":"80","fk_localidad":"35"},{"fecha":"07-05-23","local_id":"102","local_nombre":"CRUZ VERDE","comuna_nombre":"VI\u00d1A DEL MAR","localidad_nombre":"RE\u00d1ACA","local_direccion":"ANGAMOS N\u00b0 242 L- 1","funcionamiento_hora_apertura":"10:00:00","funcionamiento_hora_cierre":"18:30:00","local_telefono":"+56322836951","local_lat":"-32.9717818854296","local_lng":"-71.5420360444942","funcionamiento_dia":"domingo","fk_region":"6","fk_comuna":"80","fk_localidad":"36"},{"fecha":"07-05-23","local_id":"103","local_nombre":"CRUZ VERDE","comuna_nombre":"VI\u00d1A DEL MAR","localidad_nombre":"PLAN DE VI\u00d1A","local_direccion":"ALVARES N\u00b0 314","funcionamiento_hora_apertura":"08:30:00","funcionamiento_hora_cierre":"18:30:00","local_telefono":"+56322623883","local_lat":"-33.0257966641689","local_lng":"-71.5585714561149","funcionamiento_dia":"domingo","fk_region":"6","fk_comuna":"80","fk_localidad":"28"},{"fecha":"07-05-23","local_id":"104","local_nombre":"CRUZ VERDE","comuna_nombre":"VI\u00d1A DEL MAR","localidad_nombre":"PLAN DE VI\u00d1A","local_direccion":"AVDA. 1 NORTE N\u00ba 2901 L- 4054","funcionamiento_hora_apertura":"09:30:00","funcionamiento_hora_cierre":"18:00:00","local_telefono":"+56322674406","local_lat":"-33.0358323438944","local_lng":"-71.5236105946685","funcionamiento_dia":"domingo","fk_region":"6","fk_comuna":"80","fk_localidad":"28"},{"fecha":"07-05-23","local_id":"120","local_nombre":"SALCOBRAND","comuna_nombre":"VI\u00d1A DEL MAR","localidad_nombre":"PLAN DE VI\u00d1A","local_direccion":"LIBERTAD N\u00b0 1348 L-39 MALL MARINA","funcionamiento_hora_apertura":"11:00:00","funcionamiento_hora_cierre":"21:00:00","local_telefono":"+56322688074","local_lat":"-33.0087217966138","local_lng":"-71.5483075259855","funcionamiento_dia":"domingo","fk_region":"6","fk_comuna":"80","fk_localidad":"28"},{"fecha":"07-05-23","local_id":"124","local_nombre":"SALCOBRAND","comuna_nombre":"VI\u00d1A DEL MAR","localidad_nombre":"PLAN DE VI\u00d1A","local_direccion":"AVDA. LIBERTAD N\u00b0 1217-1223","funcionamiento_hora_apertura":"11:00:00","funcionamiento_hora_cierre":"19:30:00","local_telefono":"+56322696214","local_lat":"-33.0098795135676","local_lng":"-71.5490150470122","funcionamiento_dia":"domingo","fk_region":"6","fk_comuna":"80","fk_localidad":"28"},{"fecha":"07-05-23","local_id":"125","local_nombre":"SALCOBRAND","comuna_nombre":"VI\u00d1A DEL MAR","localidad_nombre":"PLAN DE VI\u00d1A","local_direccion":"AV. VALPARAISO N\u00b0 616","funcionamiento_hora_apertura":"09:30:00","funcionamiento_hora_cierre":"18:30:00","local_telefono":"+56322465193","local_lat":"-33.0248792377136","local_lng":"-71.5536213359781","funcionamiento_dia":"domingo","fk_region":"6","fk_comuna":"80","fk_localidad":"28"},{"fecha":"07-05-23","local_id":"126","local_nombre":"SALCOBRAND","comuna_nombre":"VI\u00d1A DEL MAR","localidad_nombre":"RE\u00d1ACA","local_direccion":"AVDA.BORGO\u00d1O N\u00b0 14410","funcionamiento_hora_apertura":"10:00:00","funcionamiento_hora_cierre":"19:30:00","local_telefono":"+56322833912","local_lat":"-32.9726899757208","local_lng":"-71.5439340847724","funcionamiento_dia":"domingo","fk_region":"6","fk_comuna":"80","fk_localidad":"36"},{"fecha":"07-05-23","local_id":"128","local_nombre":"SALCOBRAND","comuna_nombre":"VI\u00d1A DEL MAR","localidad_nombre":"PLAN DE VI\u00d1A","local_direccion":"AV. LIBERTAD N\u00b0 800 - 828","funcionamiento_hora_apertura":"11:00:00","funcionamiento_hora_cierre":"18:00:00","local_telefono":"+56322691341","local_lat":"-33.0141538103662","local_lng":"-71.5494377574511","funcionamiento_dia":"domingo","fk_region":"6","fk_comuna":"80","fk_localidad":"28"},{"fecha":"07-05-23","local_id":"129","local_nombre":"SALCOBRAND","comuna_nombre":"VI\u00d1A DEL MAR","localidad_nombre":"PLAN DE VI\u00d1A","local_direccion":"JORGE MONTT N\u00b0 2300 LAS SALINAS","funcionamiento_hora_apertura":"10:00:00","funcionamiento_hora_cierre":"18:30:00","local_telefono":"+56322691142","local_lat":"-32.9995668458723","local_lng":"-71.5480120435948","funcionamiento_dia":"domingo","fk_region":"6","fk_comuna":"80","fk_localidad":"28"},{"fecha":"07-05-23","local_id":"137","local_nombre":"DR. SIMI","comuna_nombre":"VI\u00d1A DEL MAR","localidad_nombre":"PLAN DE VI\u00d1A","local_direccion":"AV. VALPARA\u00cdSO 683","funcionamiento_hora_apertura":"10:00:00","funcionamiento_hora_cierre":"18:00:00","local_telefono":"+56322979177","local_lat":"-33.0248218200772","local_lng":"-71.5529025464465","funcionamiento_dia":"domingo","fk_region":"6","fk_comuna":"80","fk_localidad":"28"},{"fecha":"07-05-23","local_id":"140","local_nombre":"AHUMADA","comuna_nombre":"VI\u00d1A DEL MAR","localidad_nombre":"PLAN DE VI\u00d1A","local_direccion":"AV. VALPARAISO N\u00b01070 L 2116","funcionamiento_hora_apertura":"09:00:00","funcionamiento_hora_cierre":"19:00:00","local_telefono":"+56026313696","local_lat":"-33.0260329858954","local_lng":"-71.547467928192","funcionamiento_dia":"domingo","fk_region":"6","fk_comuna":"80","fk_localidad":"28"},{"fecha":"07-05-23","local_id":"141","local_nombre":"CRUZ VERDE","comuna_nombre":"VI\u00d1A DEL MAR","localidad_nombre":"PLAN DE VI\u00d1A","local_direccion":"AV. VALPARAISO 1070 L 3008","funcionamiento_hora_apertura":"08:30:00","funcionamiento_hora_cierre":"18:30:00","local_telefono":"+56322713659","local_lat":"-33.025889459082","local_lng":"-71.5474316858611","funcionamiento_dia":"domingo","fk_region":"6","fk_comuna":"80","fk_localidad":"28"},{"fecha":"07-05-23","local_id":"154","local_nombre":"CRUZ VERDE","comuna_nombre":"VALPARAISO","localidad_nombre":"PLAN VALPARAISO","local_direccion":"AV. PEDRO MONTT N\u00b0 2705","funcionamiento_hora_apertura":"09:00:00","funcionamiento_hora_cierre":"18:30:00","local_telefono":"+56322214500","local_lat":"-33.0472612758337","local_lng":"-71.6079371834462","funcionamiento_dia":"domingo","fk_region":"6","fk_comuna":"78","fk_localidad":"2"},{"fecha":"07-05-23","local_id":"156","local_nombre":"CRUZ VERDE","comuna_nombre":"VALPARAISO","localidad_nombre":"PLAN VALPARAISO","local_direccion":"AV. ARGENTINA N\u00b0 51 LOCAL N\u00b0 2003","funcionamiento_hora_apertura":"09:00:00","funcionamiento_hora_cierre":"18:00:00","local_telefono":"+56322593663","local_lat":"-33.0440619428576","local_lng":"-71.6048452560041","funcionamiento_dia":"domingo","fk_region":"6","fk_comuna":"78","fk_localidad":"2"},{"fecha":"07-05-23","local_id":"158","local_nombre":"CRUZ VERDE","comuna_nombre":"VALPARAISO","localidad_nombre":"PLACILLA","local_direccion":"OBISPO VALDEZ SUBERCASEAUX N\u00b0 1170 LOCAL 6 Y 7 PLACILLA","funcionamiento_hora_apertura":"09:00:00","funcionamiento_hora_cierre":"19:00:00","local_telefono":"+56392292916","local_lat":"-33.1187010681137","local_lng":"-71.5713998255228","funcionamiento_dia":"domingo","fk_region":"6","fk_comuna":"78","fk_localidad":"27"},{"fecha":"07-05-23","local_id":"159","local_nombre":"CRUZ VERDE","comuna_nombre":"VALPARAISO","localidad_nombre":"PLACILLA","local_direccion":"AV. CARDENAL SAMORE N\u00ba2335 LOCAL 1862 PLACILLA","funcionamiento_hora_apertura":"10:30:00","funcionamiento_hora_cierre":"20:30:00","local_telefono":"+56322294849","local_lat":"-33.1308194738605","local_lng":"-71.5652699333018","funcionamiento_dia":"domingo","fk_region":"6","fk_comuna":"78","fk_localidad":"27"},{"fecha":"07-05-23","local_id":"179","local_nombre":"SALCOBRAND","comuna_nombre":"VALPARAISO","localidad_nombre":"PLAN VALPARAISO","local_direccion":"AV. PEDRO MONTT N\u00ba 1898","funcionamiento_hora_apertura":"10:00:00","funcionamiento_hora_cierre":"19:00:00","local_telefono":"+5632224223300 ANEXO 5376","local_lat":"-33.0469954632607","local_lng":"-71.6171792932502","funcionamiento_dia":"domingo","fk_region":"6","fk_comuna":"78","fk_localidad":"2"},{"fecha":"07-05-23","local_id":"180","local_nombre":"SALCOBRAND ","comuna_nombre":"VALPARAISO","localidad_nombre":"PLAN VALPARAISO","local_direccion":"AV. ARGENTINA N\u00b0 51 LOCAL N\u00b0 2027","funcionamiento_hora_apertura":"09:00:00","funcionamiento_hora_cierre":"18:00:00","local_telefono":"+5632224223300 anexo 5422","local_lat":"-33.0443615400056","local_lng":"-71.6047470240116","funcionamiento_dia":"domingo","fk_region":"6","fk_comuna":"78","fk_localidad":"2"},{"fecha":"07-05-23","local_id":"186","local_nombre":"CRUZ VERDE","comuna_nombre":"VALPARAISO","localidad_nombre":"VALPARAISO URGENCIA","local_direccion":"AV. PEDRO MONTT 1902","funcionamiento_hora_apertura":"00:00:00","funcionamiento_hora_cierre":"00:00:00","local_telefono":"+56322745048","local_lat":"-33.0470628068749","local_lng":"-71.6169778733873","funcionamiento_dia":"domingo","fk_region":"6","fk_comuna":"78","fk_localidad":"1"},{"fecha":"07-05-23","local_id":"192","local_nombre":"FAMIFARMA","comuna_nombre":"CASABLANCA","localidad_nombre":"CASABLANCA","local_direccion":"CHACABUCO N\u00ba 208","funcionamiento_hora_apertura":"10:00:00","funcionamiento_hora_cierre":"20:00:00","local_telefono":"+56322743046","local_lat":"-33.3200990278442","local_lng":"-71.406862450338","funcionamiento_dia":"domingo","fk_region":"6","fk_comuna":"344","fk_localidad":"49"},{"fecha":"07-05-23","local_id":"196","local_nombre":"CRUZ VERDE","comuna_nombre":"ALGARROBO","localidad_nombre":"ALGARROBO","local_direccion":"AV. IGNACIO CARRERA PINTO ESQUINA DR. GUILLERMO M\u00dcCKE","funcionamiento_hora_apertura":"09:00:00","funcionamiento_hora_cierre":"18:00:00","local_telefono":"+56352481876","local_lat":"-33.3690854924785","local_lng":"-71.6691682588718","funcionamiento_dia":"domingo","fk_region":"6","fk_comuna":"45","fk_localidad":"3"},{"fecha":"07-05-23","local_id":"198","local_nombre":"GALVEZ","comuna_nombre":"ALGARROBO","localidad_nombre":"ALGARROBO","local_direccion":"LUZ DIVINA SITIO N\u00ba 5","funcionamiento_hora_apertura":"10:00:00","funcionamiento_hora_cierre":"14:00:00","local_telefono":"+5635sin tel\u00e9fono","local_lat":"-33.3718929144967","local_lng":"-71.6673306139507","funcionamiento_dia":"domingo","fk_region":"6","fk_comuna":"45","fk_localidad":"3"},{"fecha":"07-05-23","local_id":"199","local_nombre":"CRUZ VERDE","comuna_nombre":"EL QUISCO","localidad_nombre":"EL QUISCO","local_direccion":"J.N. AGUIRRE N\u00ba 017","funcionamiento_hora_apertura":"09:00:00","funcionamiento_hora_cierre":"18:30:00","local_telefono":"+56352471987","local_lat":"-33.3972727161571","local_lng":"-71.6944403358581","funcionamiento_dia":"domingo","fk_region":"6","fk_comuna":"51","fk_localidad":"9"},{"fecha":"07-05-23","local_id":"200","local_nombre":"EL QUISCO","comuna_nombre":"EL QUISCO","localidad_nombre":"EL QUISCO","local_direccion":"AV. ISIDORO DUBORNAIS N\u00ba 177","funcionamiento_hora_apertura":"10:00:00","funcionamiento_hora_cierre":"21:00:00","local_telefono":"+56352471182","local_lat":"-33.3967877278712","local_lng":"-71.6947693097814","funcionamiento_dia":"domingo","fk_region":"6","fk_comuna":"51","fk_localidad":"9"},{"fecha":"07-05-23","local_id":"205","local_nombre":"LAS CRUCES","comuna_nombre":"EL TABO","localidad_nombre":"El TABO","local_direccion":"ERRAZURIZ N\u00ba 182 LAS CRUCES","funcionamiento_hora_apertura":"10:30:00","funcionamiento_hora_cierre":"20:30:00","local_telefono":"+56352431224","local_lat":"-33.499676","local_lng":"-71.616060","funcionamiento_dia":"domingo","fk_region":"6","fk_comuna":"52","fk_localidad":"50"},{"fecha":"07-05-23","local_id":"207","local_nombre":"CRUZ VERDE","comuna_nombre":"CARTAGENA","localidad_nombre":"CARTAGENA","local_direccion":"AV. CARTAGENA N\u00b0313","funcionamiento_hora_apertura":"09:00:00","funcionamiento_hora_cierre":"18:30:00","local_telefono":"+56352451143","local_lat":"-33.5465928963621","local_lng":"-71.6025624301641","funcionamiento_dia":"domingo","fk_region":"6","fk_comuna":"48","fk_localidad":"5"},{"fecha":"07-05-23","local_id":"208","local_nombre":"SAN SEBASTIAN","comuna_nombre":"CARTAGENA","localidad_nombre":"CARTAGENA","local_direccion":"CASANOVA N\u00ba 328","funcionamiento_hora_apertura":"10:30:00","funcionamiento_hora_cierre":"19:30:00","local_telefono":"+56352451357","local_lat":"-33.547220627122","local_lng":"-71.6031519364708","funcionamiento_dia":"domingo","fk_region":"6","fk_comuna":"48","fk_localidad":"5"},{"fecha":"07-05-23","local_id":"211","local_nombre":"CRUZ VERDE","comuna_nombre":"SAN ANTONIO","localidad_nombre":"SAN ANTONIO","local_direccion":"AV. CENTENARIO N\u00ba 120","funcionamiento_hora_apertura":"09:00:00","funcionamiento_hora_cierre":"19:30:00","local_telefono":"+56352216549","local_lat":"-33.5804065819916","local_lng":"-71.6113547173853","funcionamiento_dia":"domingo","fk_region":"6","fk_comuna":"73","fk_localidad":"19"},{"fecha":"07-05-23","local_id":"213","local_nombre":"CRUZ VERDE","comuna_nombre":"SAN ANTONIO","localidad_nombre":"SAN ANTONIO","local_direccion":"AV. PROVIDENCIA N\u00b0 196","funcionamiento_hora_apertura":"09:00:00","funcionamiento_hora_cierre":"18:30:00","local_telefono":"+56352280380","local_lat":"-33.6119610329653","local_lng":"-71.6105500711006","funcionamiento_dia":"domingo","fk_region":"6","fk_comuna":"73","fk_localidad":"19"},{"fecha":"07-05-23","local_id":"218","local_nombre":"SALCOBRAND","comuna_nombre":"SAN ANTONIO","localidad_nombre":"SAN ANTONIO","local_direccion":"AV. CENTENARIO N\u00ba 102","funcionamiento_hora_apertura":"10:00:00","funcionamiento_hora_cierre":"19:00:00","local_telefono":"+5635224223300 anexo 5356","local_lat":"-33.5805083390525","local_lng":"-71.6116593880986","funcionamiento_dia":"domingo","fk_region":"6","fk_comuna":"73","fk_localidad":"19"},{"fecha":"07-05-23","local_id":"219","local_nombre":"SALCOBRAND","comuna_nombre":"SAN ANTONIO","localidad_nombre":"SAN ANTONIO","local_direccion":"AV: PROVIDENCIA N\u00ba 102","funcionamiento_hora_apertura":"10:00:00","funcionamiento_hora_cierre":"16:00:00","local_telefono":"+5635224223300 anexo 5386","local_lat":"-33.611391350083","local_lng":"-71.6106298652622","funcionamiento_dia":"domingo","fk_region":"6","fk_comuna":"73","fk_localidad":"19"},{"fecha":"07-05-23","local_id":"224","local_nombre":"SALCOBRAND","comuna_nombre":"SAN ANTONIO","localidad_nombre":"SAN ANTONIO","local_direccion":"PASEO BELLAMAR N\u00b0 22 LOCAL 14","funcionamiento_hora_apertura":"10:00:00","funcionamiento_hora_cierre":"18:00:00","local_telefono":"+5635224223300 anexo 5372","local_lat":"-33.5822971432269","local_lng":"-71.613619915542","funcionamiento_dia":"domingo","fk_region":"6","fk_comuna":"73","fk_localidad":"19"},{"fecha":"07-05-23","local_id":"225","local_nombre":"CRUZ VERDE","comuna_nombre":"SAN ANTONIO","localidad_nombre":"SAN ANTONIO","local_direccion":"AV. RAMON BARROS LUCO N\u00b0 105 LOC. 10","funcionamiento_hora_apertura":"10:00:00","funcionamiento_hora_cierre":"21:00:00","local_telefono":"+56352235038","local_lat":"-33.5814219335654","local_lng":"-71.6140782387673","funcionamiento_dia":"domingo","fk_region":"6","fk_comuna":"73","fk_localidad":"19"},{"fecha":"07-05-23","local_id":"227","local_nombre":"CRUZ VERDE","comuna_nombre":"SANTO DOMINGO","localidad_nombre":"SANTO DOMINGO","local_direccion":"AV. EL GOLF N\u00ba05","funcionamiento_hora_apertura":"09:00:00","funcionamiento_hora_cierre":"18:30:00","local_telefono":"+56352442803","local_lat":"-33.6403611606981","local_lng":"-71.6267027978355","funcionamiento_dia":"domingo","fk_region":"6","fk_comuna":"77","fk_localidad":"39"},{"fecha":"07-05-23","local_id":"228","local_nombre":"CRUZ VERDE","comuna_nombre":"ISLA DE PASCUA","localidad_nombre":"ISLA DE PASCUA","local_direccion":"ATAMU TEKENA S\/N","funcionamiento_hora_apertura":"09:00:00","funcionamiento_hora_cierre":"16:00:00","local_telefono":"+56322551541","local_lat":"-27.1497101","local_lng":"\u00a0-109.4290893\u00a0\u00a0","funcionamiento_dia":"domingo","fk_region":"6","fk_comuna":"54","fk_localidad":"11"},{"fecha":"07-05-23","local_id":"248","local_nombre":"CRUZ VERDE","comuna_nombre":"CABILDO","localidad_nombre":"CABILDO","local_direccion":"AV. HUMERES N\u00b0 552","funcionamiento_hora_apertura":"10:30:00","funcionamiento_hora_cierre":"21:00:00","local_telefono":"+56332763352","local_lat":"-32.4266348108772","local_lng":"-71.0676507790677","funcionamiento_dia":"domingo","fk_region":"6","fk_comuna":"46","fk_localidad":"4"},{"fecha":"07-05-23","local_id":"250","local_nombre":"CRUZ VERDE","comuna_nombre":"LA LIGUA","localidad_nombre":"LA LIGUA","local_direccion":"PEDRO POLANCO N\u00b0 263","funcionamiento_hora_apertura":"10:00:00","funcionamiento_hora_cierre":"22:00:00","local_telefono":"+56332714811","local_lat":"-32.4487343174696","local_lng":"-71.231162111896","funcionamiento_dia":"domingo","fk_region":"6","fk_comuna":"58","fk_localidad":"14"},{"fecha":"07-05-23","local_id":"255","local_nombre":"PORTALES","comuna_nombre":"LA LIGUA","localidad_nombre":"LA LIGUA","local_direccion":"PORTALES N\u00b0 706","funcionamiento_hora_apertura":"10:00:00","funcionamiento_hora_cierre":"22:00:00","local_telefono":"+56716843","local_lat":"-32.4498941930026","local_lng":"-71.2333923268525","funcionamiento_dia":"domingo","fk_region":"6","fk_comuna":"58","fk_localidad":"14"},{"fecha":"07-05-23","local_id":"257","local_nombre":"AHUMADA","comuna_nombre":"LOS ANDES","localidad_nombre":"LOS ANDES","local_direccion":"AV. SANTA TERESA N\u00b0 683, L-18","funcionamiento_hora_apertura":"10:00:00","funcionamiento_hora_cierre":"19:00:00","local_telefono":"+5633226313386","local_lat":"-32.8354388234547","local_lng":"-70.6043452642452","funcionamiento_dia":"domingo","fk_region":"6","fk_comuna":"61","fk_localidad":"20"},{"fecha":"07-05-23","local_id":"258","local_nombre":"CRUZ VERDE","comuna_nombre":"LOS ANDES","localidad_nombre":"LOS ANDES","local_direccion":"AV. ARGENTINA N\u00b0 805, L-1020","funcionamiento_hora_apertura":"10:00:00","funcionamiento_hora_cierre":"20:45:00","local_telefono":"+5634800802800","local_lat":"-32.8271626821526","local_lng":"-70.6026688445253","funcionamiento_dia":"domingo","fk_region":"6","fk_comuna":"61","fk_localidad":"20"},{"fecha":"07-05-23","local_id":"259","local_nombre":"CRUZ VERDE","comuna_nombre":"LOS ANDES","localidad_nombre":"LOS ANDES","local_direccion":"MAIPU N\u00b0 302","funcionamiento_hora_apertura":"10:00:00","funcionamiento_hora_cierre":"22:00:00","local_telefono":"+56342402955","local_lat":"-32.833526665096","local_lng":"-70.5973027730903","funcionamiento_dia":"domingo","fk_region":"6","fk_comuna":"61","fk_localidad":"20"},{"fecha":"07-05-23","local_id":"264","local_nombre":"SALCOBRAND","comuna_nombre":"LOS ANDES","localidad_nombre":"LOS ANDES","local_direccion":"ESMERALDA N\u00b0 299","funcionamiento_hora_apertura":"10:00:00","funcionamiento_hora_cierre":"20:00:00","local_telefono":"+560224223300 anexo 5305","local_lat":"-32.8333471410356","local_lng":"-70.5972354596901","funcionamiento_dia":"domingo","fk_region":"6","fk_comuna":"61","fk_localidad":"20"},{"fecha":"07-05-23","local_id":"266","local_nombre":"SALCOBRAND","comuna_nombre":"LOS ANDES","localidad_nombre":"LOS ANDES","local_direccion":"AV. SANTA TERESA N\u00b0 683, L-104-106","funcionamiento_hora_apertura":"10:00:00","funcionamiento_hora_cierre":"21:00:00","local_telefono":"+560224223300 anexo 5251","local_lat":"-32.835555086719","local_lng":"-70.6044221388779","funcionamiento_dia":"domingo","fk_region":"6","fk_comuna":"61","fk_localidad":"20"},{"fecha":"07-05-23","local_id":"269","local_nombre":"AHUMADA","comuna_nombre":"LOS ANDES","localidad_nombre":"LOS ANDES","local_direccion":"ESMERALDA N\u00b0 315","funcionamiento_hora_apertura":"09:00:00","funcionamiento_hora_cierre":"19:00:00","local_telefono":"+56026313652","local_lat":"-32.8332614878186","local_lng":"-70.5975864663555","funcionamiento_dia":"domingo","fk_region":"6","fk_comuna":"61","fk_localidad":"20"},{"fecha":"07-05-23","local_id":"270","local_nombre":"CRUZ VERDE","comuna_nombre":"LOS ANDES","localidad_nombre":"LOS ANDES","local_direccion":"MAIPU N\u00b0320","funcionamiento_hora_apertura":"10:00:00","funcionamiento_hora_cierre":"21:00:00","local_telefono":"+56342345168","local_lat":"-32.8336432057362","local_lng":"-70.5973582756691","funcionamiento_dia":"domingo","fk_region":"6","fk_comuna":"61","fk_localidad":"20"},{"fecha":"07-05-23","local_id":"272","local_nombre":"SAN JOSE PAPUDO","comuna_nombre":"PAPUDO","localidad_nombre":"PAPUDO","local_direccion":"CHORRILLOS N\u00b093","funcionamiento_hora_apertura":"10:00:00","funcionamiento_hora_cierre":"20:00:00","local_telefono":"+5633+56999987723","local_lat":"-32.5072043868488","local_lng":"-71.4471110053879","funcionamiento_dia":"domingo","fk_region":"6","fk_comuna":"65","fk_localidad":"25"},{"fecha":"07-05-23","local_id":"276","local_nombre":"AHUMADA","comuna_nombre":"SAN FELIPE","localidad_nombre":"SAN FELIPE","local_direccion":"PRAT N\u00b0 798","funcionamiento_hora_apertura":"09:00:00","funcionamiento_hora_cierre":"20:00:00","local_telefono":"+560226313149","local_lat":"-32.7499489167651","local_lng":"-70.7256027010433","funcionamiento_dia":"domingo","fk_region":"6","fk_comuna":"75","fk_localidad":"37"},{"fecha":"07-05-23","local_id":"277","local_nombre":"CRUZ VERDE","comuna_nombre":"SAN FELIPE","localidad_nombre":"SAN FELIPE","local_direccion":"MERCED N\u00b0 176","funcionamiento_hora_apertura":"10:00:00","funcionamiento_hora_cierre":"21:00:00","local_telefono":"+56342514734","local_lat":"-32.7513976026944","local_lng":"-70.7251930500761","funcionamiento_dia":"domingo","fk_region":"6","fk_comuna":"75","fk_localidad":"37"},{"fecha":"07-05-23","local_id":"282","local_nombre":"SALCOBRAND","comuna_nombre":"SAN FELIPE","localidad_nombre":"SAN FELIPE","local_direccion":"COIMAS N\u00b0 210","funcionamiento_hora_apertura":"10:00:00","funcionamiento_hora_cierre":"21:00:00","local_telefono":"+56518407","local_lat":"-32.7507965157179","local_lng":"-70.7243062824228","funcionamiento_dia":"domingo","fk_region":"6","fk_comuna":"75","fk_localidad":"37"},{"fecha":"07-05-23","local_id":"283","local_nombre":"CRUZ VERDE","comuna_nombre":"SAN FELIPE","localidad_nombre":"SAN FELIPE","local_direccion":"O'HIGGINS N\u00b0 1150, L-1030","funcionamiento_hora_apertura":"10:00:00","funcionamiento_hora_cierre":"22:00:00","local_telefono":"+56532399","local_lat":"-32.756866791555","local_lng":"-70.7229610019134","funcionamiento_dia":"domingo","fk_region":"6","fk_comuna":"75","fk_localidad":"37"},{"fecha":"07-05-23","local_id":"288","local_nombre":"CRUZ VERDE","comuna_nombre":"ZAPALLAR","localidad_nombre":"ZAPALLAR","local_direccion":"AV. CACHAGUA N\u00b0 34","funcionamiento_hora_apertura":"09:00:00","funcionamiento_hora_cierre":"21:00:00","local_telefono":"+560","local_lat":"-32.5778496","local_lng":"-71.45114660000002","funcionamiento_dia":"domingo","fk_region":"6","fk_comuna":"81","fk_localidad":"42"},{"fecha":"07-05-23","local_id":"302","local_nombre":"CRUZ VERDE","comuna_nombre":"VI\u00d1A DEL MAR","localidad_nombre":"GOMEZ CARRE\u00d1O - RE\u00d1ACA ALTO","local_direccion":"AV. ALESSANDRI 4085 LOCAL 1120","funcionamiento_hora_apertura":"08:30:00","funcionamiento_hora_cierre":"18:00:00","local_telefono":"+56322230180","local_lat":"-32.9975089111507","local_lng":"-71.5129951580062","funcionamiento_dia":"domingo","fk_region":"6","fk_comuna":"80","fk_localidad":"10"},{"fecha":"07-05-23","local_id":"305","local_nombre":"CRUZ VERDE","comuna_nombre":"PUCHUNCAVI","localidad_nombre":"PUCHUNCAVI","local_direccion":"CARRETERA F 30 - E KM 45 LOC 1 MAITENCILLO","funcionamiento_hora_apertura":"08:30:00","funcionamiento_hora_cierre":"18:30:00","local_telefono":"+56342771581","local_lat":"-32.6460432480962","local_lng":"-71.4250085014157","funcionamiento_dia":"domingo","fk_region":"6","fk_comuna":"67","fk_localidad":"30"},{"fecha":"07-05-23","local_id":"308","local_nombre":"CRUZ VERDE","comuna_nombre":"CONCON","localidad_nombre":"CONCON","local_direccion":"LOS GINKOS 5 LOCAL 11,12,13","funcionamiento_hora_apertura":"08:30:00","funcionamiento_hora_cierre":"18:00:00","local_telefono":"+56322857355","local_lat":"-32.944359336889","local_lng":"-71.5456991425245","funcionamiento_dia":"domingo","fk_region":"6","fk_comuna":"50","fk_localidad":"8"},{"fecha":"07-05-23","local_id":"309","local_nombre":"CRUZ VERDE","comuna_nombre":"CONCON","localidad_nombre":"CONCON","local_direccion":"AV. CON CON RE\u00d1ACA 3850 LOCAL 1013","funcionamiento_hora_apertura":"08:30:00","funcionamiento_hora_cierre":"18:00:00","local_telefono":"+56322858104","local_lat":"-32.9401567741936","local_lng":"-71.5461774672367","funcionamiento_dia":"domingo","fk_region":"6","fk_comuna":"50","fk_localidad":"8"},{"fecha":"07-05-23","local_id":"310","local_nombre":"CRUZ VERDE","comuna_nombre":"CONCON","localidad_nombre":"CONCON","local_direccion":"MAGALLANES 866","funcionamiento_hora_apertura":"08:30:00","funcionamiento_hora_cierre":"19:30:00","local_telefono":"+56322813636","local_lat":"-32.929978604972","local_lng":"-71.5189630170604","funcionamiento_dia":"domingo","fk_region":"6","fk_comuna":"50","fk_localidad":"8"},{"fecha":"07-05-23","local_id":"311","local_nombre":"AHUMADA","comuna_nombre":"CONCON","localidad_nombre":"CONCON","local_direccion":"MANANTIALES 945 LOCAL 104","funcionamiento_hora_apertura":"09:00:00","funcionamiento_hora_cierre":"19:30:00","local_telefono":"+560226313224","local_lat":"-32.9308345041347","local_lng":"-71.5189979816134","funcionamiento_dia":"domingo","fk_region":"6","fk_comuna":"50","fk_localidad":"8"},{"fecha":"07-05-23","local_id":"312","local_nombre":"SALCOBRAND","comuna_nombre":"CONCON","localidad_nombre":"CONCON","local_direccion":"AV. CON CON RE\u00d1ACA 3850 LOCAL 1004","funcionamiento_hora_apertura":"10:00:00","funcionamiento_hora_cierre":"18:30:00","local_telefono":"+56322857737","local_lat":"-32.9404983406804","local_lng":"-71.5462300353624","funcionamiento_dia":"domingo","fk_region":"6","fk_comuna":"50","fk_localidad":"8"},{"fecha":"07-05-23","local_id":"314","local_nombre":"FARMACIA AHUMADA","comuna_nombre":"IQUIQUE","localidad_nombre":"IQUIQUE","local_direccion":"H\u00c9ROES DE LA CONCEPCI\u00d3N 2653 SUPERMERCADO LIDER","funcionamiento_hora_apertura":"09:00:00","funcionamiento_hora_cierre":"19:00:00","local_telefono":"+5602232740357","local_lat":"-20.23573422028","local_lng":"-70.14335989","funcionamiento_dia":"domingo","fk_region":"2","fk_comuna":"9","fk_localidad":"65"},{"fecha":"07-05-23","local_id":"320","local_nombre":"AHUMADA","comuna_nombre":"QUILPUE","localidad_nombre":"QUILPUE","local_direccion":"AV. RAM\u00d3N FREIRE 1351","funcionamiento_hora_apertura":"08:30:00","funcionamiento_hora_cierre":"19:00:00","local_telefono":"+56964852626","local_lat":"-33.0456396394099","local_lng":"-71.4177377167955","funcionamiento_dia":"domingo","fk_region":"6","fk_comuna":"70","fk_localidad":"33"},{"fecha":"07-05-23","local_id":"321","local_nombre":"FARMACIA CRUZ DEL SUR","comuna_nombre":"ALTO HOSPICIO","localidad_nombre":"ALTO HOSPICIO","local_direccion":"AVENIDA LOS C\u00d3NDORES 3824","funcionamiento_hora_apertura":"10:00:00","funcionamiento_hora_cierre":"20:00:00","local_telefono":"+56572323097","local_lat":"-20.27439531605","local_lng":"-70.096399784","funcionamiento_dia":"domingo","fk_region":"2","fk_comuna":"5","fk_localidad":"61"},{"fecha":"07-05-23","local_id":"322","local_nombre":"FARMACIA CRUZ VERDE","comuna_nombre":"IQUIQUE","localidad_nombre":"IQUIQUE","local_direccion":"H\u00c9ROES DE LA CONCEPCI\u00d3N 2555 L158-160A","funcionamiento_hora_apertura":"08:30:00","funcionamiento_hora_cierre":"19:30:00","local_telefono":"+56572439694","local_lat":"-20.232718","local_lng":"-70.142465","funcionamiento_dia":"domingo","fk_region":"2","fk_comuna":"9","fk_localidad":"65"},{"fecha":"07-05-23","local_id":"323","local_nombre":"FARMACIA CRUZ VERDE","comuna_nombre":"IQUIQUE","localidad_nombre":"IQUIQUE","local_direccion":"HEROES DE LA CONCEPCION 2855","funcionamiento_hora_apertura":"09:00:00","funcionamiento_hora_cierre":"20:30:00","local_telefono":"+56572248719","local_lat":"-20.23888504","local_lng":"-70.144819021","funcionamiento_dia":"domingo","fk_region":"2","fk_comuna":"9","fk_localidad":"65"},{"fecha":"07-05-23","local_id":"334","local_nombre":"MONTEMAR","comuna_nombre":"CONCON","localidad_nombre":"CONCON","local_direccion":"BORGO\u00d1O 25180","funcionamiento_hora_apertura":"11:00:00","funcionamiento_hora_cierre":"14:00:00","local_telefono":"+56322813051","local_lat":"-32.9202235851259","local_lng":"-71.5099412409831","funcionamiento_dia":"domingo","fk_region":"6","fk_comuna":"50","fk_localidad":"8"},{"fecha":"07-05-23","local_id":"338","local_nombre":"FARMACIA CRUZ VERDE","comuna_nombre":"IQUIQUE","localidad_nombre":"IQUIQUE","local_direccion":"VIVAR 706-710","funcionamiento_hora_apertura":"09:30:00","funcionamiento_hora_cierre":"22:30:00","local_telefono":"+56572422908","local_lat":"-20.2147384","local_lng":"-70.1485386","funcionamiento_dia":"domingo","fk_region":"2","fk_comuna":"9","fk_localidad":"65"},{"fecha":"07-05-23","local_id":"341","local_nombre":"FARMACIA CRUZ VERDE","comuna_nombre":"IQUIQUE","localidad_nombre":"IQUIQUE","local_direccion":"VIVAR 854","funcionamiento_hora_apertura":"10:00:00","funcionamiento_hora_cierre":"18:00:00","local_telefono":"+56572318321","local_lat":"-20.2161886","local_lng":"-70.14863579","funcionamiento_dia":"domingo","fk_region":"2","fk_comuna":"9","fk_localidad":"65"},{"fecha":"07-05-23","local_id":"342","local_nombre":"FARMACIA CRUZ VERDE","comuna_nombre":"IQUIQUE","localidad_nombre":"IQUIQUE","local_direccion":"AV. FRANCISO BILBAO 3545 LOCAL 14","funcionamiento_hora_apertura":"09:00:00","funcionamiento_hora_cierre":"18:00:00","local_telefono":"+56572329247","local_lat":"-20.257849","local_lng":"-70.132513046","funcionamiento_dia":"domingo","fk_region":"2","fk_comuna":"9","fk_localidad":"65"},{"fecha":"07-05-23","local_id":"343","local_nombre":"FARMACIA CRUZ VERDE","comuna_nombre":"IQUIQUE","localidad_nombre":"IQUIQUE","local_direccion":"MANUEL RODRIGUEZ 964 LOCAL 8","funcionamiento_hora_apertura":"10:00:00","funcionamiento_hora_cierre":"17:00:00","local_telefono":"+56572790185","local_lat":"-20.223261171","local_lng":"-70.14669656","funcionamiento_dia":"domingo","fk_region":"2","fk_comuna":"9","fk_localidad":"65"},{"fecha":"07-05-23","local_id":"344","local_nombre":"FARMACIA CRUZ VERDE","comuna_nombre":"IQUIQUE","localidad_nombre":"IQUIQUE","local_direccion":"GENARO GALLO 2955 LOCAL 7","funcionamiento_hora_apertura":"11:30:00","funcionamiento_hora_cierre":"23:00:00","local_telefono":"+56572248817","local_lat":"-20.242911558","local_lng":"-70.14214754","funcionamiento_dia":"domingo","fk_region":"2","fk_comuna":"9","fk_localidad":"65"},{"fecha":"07-05-23","local_id":"348","local_nombre":"CRUZ VERDE","comuna_nombre":"QUILPUE","localidad_nombre":"QUILPUE","local_direccion":"DIEGO PORTALES 822","funcionamiento_hora_apertura":"11:00:00","funcionamiento_hora_cierre":"21:00:00","local_telefono":"+56322543555","local_lat":"-33.046703125145","local_lng":"-71.4413640021234","funcionamiento_dia":"domingo","fk_region":"6","fk_comuna":"70","fk_localidad":"33"},{"fecha":"07-05-23","local_id":"351","local_nombre":"FARMACIA FAMILIAR ","comuna_nombre":"LIMACHE","localidad_nombre":"LIMACHE","local_direccion":"REPUBLICA 221","funcionamiento_hora_apertura":"09:00:00","funcionamiento_hora_cierre":"09:00:00","local_telefono":"+56332417707","local_lat":"-33.0022386353404","local_lng":"-71.2660261659213","funcionamiento_dia":"domingo","fk_region":"6","fk_comuna":"59","fk_localidad":"17"},{"fecha":"07-05-23","local_id":"355","local_nombre":"POSTA DE SALUD RURAL ROMERAL","comuna_nombre":"HIJUELAS","localidad_nombre":"HIJUELAS","local_direccion":"LOS PINOS S\/N, SECTOR ROMERAL","funcionamiento_hora_apertura":"00:00:00","funcionamiento_hora_cierre":"00:00:00","local_telefono":"+56332272505","local_lat":"","local_lng":"","funcionamiento_dia":"domingo","fk_region":"6","fk_comuna":"53","fk_localidad":"51"},{"fecha":"07-05-23","local_id":"490","local_nombre":"NUEVA SALUD","comuna_nombre":"QUINTERO","localidad_nombre":"QUINTERO","local_direccion":"AV. NORMANDIE 2680 L-1","funcionamiento_hora_apertura":"10:00:00","funcionamiento_hora_cierre":"20:00:00","local_telefono":"+56322935087","local_lat":"-32.7924497555717","local_lng":"-71.5266699049151","funcionamiento_dia":"domingo","fk_region":"6","fk_comuna":"71","fk_localidad":"34"},{"fecha":"07-05-23","local_id":"498","local_nombre":"CRUZ VERDE ","comuna_nombre":"CASABLANCA","localidad_nombre":"CASABLANCA","local_direccion":"AV. DIEGO PORTALES 551 LOCAL 9","funcionamiento_hora_apertura":"09:00:00","funcionamiento_hora_cierre":"18:30:00","local_telefono":"+5632226944000 anexo 50944","local_lat":"-33.3226632078393","local_lng":"-71.4052897062759","funcionamiento_dia":"domingo","fk_region":"6","fk_comuna":"344","fk_localidad":"49"},{"fecha":"07-05-23","local_id":"508","local_nombre":"LA SALUD","comuna_nombre":"VALPARAISO","localidad_nombre":"PLAYA ANCHA","local_direccion":"AVENIDA LUIS GUEVARA ORTUZAR N\u00ba 2002 LOCAL N\u00ba 6","funcionamiento_hora_apertura":"09:00:00","funcionamiento_hora_cierre":"21:00:00","local_telefono":"+56323614582","local_lat":"-33.0439218191614","local_lng":"-71.6466034446998","funcionamiento_dia":"domingo","fk_region":"6","fk_comuna":"78","fk_localidad":"29"},{"fecha":"07-05-23","local_id":"535","local_nombre":"CRUZ VERDE","comuna_nombre":"QUILLOTA","localidad_nombre":"EL SENDERO","local_direccion":"AV. VALPARAISO 2150, LOCAL 10","funcionamiento_hora_apertura":"10:00:00","funcionamiento_hora_cierre":"18:30:00","local_telefono":"+560222301893","local_lat":"-32.8966207488174","local_lng":"-71.2657687797009","funcionamiento_dia":"domingo","fk_region":"6","fk_comuna":"69","fk_localidad":"405"},{"fecha":"07-05-23","local_id":"753","local_nombre":"AHUMADA","comuna_nombre":"BUIN","localidad_nombre":"BUIN","local_direccion":"SAN MARTIN 174","funcionamiento_hora_apertura":"09:00:00","funcionamiento_hora_cierre":"22:00:00","local_telefono":"+560226313086","local_lat":"-33.732","local_lng":"-70.735941","funcionamiento_dia":"domingo","fk_region":"7","fk_comuna":"83","fk_localidad":"102"},{"fecha":"07-05-23","local_id":"755","local_nombre":"BUIN","comuna_nombre":"BUIN","localidad_nombre":"BUIN","local_direccion":"MANUEL RODRIGUEZ 270","funcionamiento_hora_apertura":"10:30:00","funcionamiento_hora_cierre":"13:30:00","local_telefono":"+560228213917","local_lat":"-33.729515","local_lng":"-70.739232","funcionamiento_dia":"domingo","fk_region":"7","fk_comuna":"83","fk_localidad":"102"},{"fecha":"07-05-23","local_id":"756","local_nombre":"CRUZ VERDE ","comuna_nombre":"BUIN","localidad_nombre":"BUIN","local_direccion":"JOSE MANUEL BALMACEDA 114","funcionamiento_hora_apertura":"10:00:00","funcionamiento_hora_cierre":"20:00:00","local_telefono":"+560228221985","local_lat":"-33.733423","local_lng":"-70.737859","funcionamiento_dia":"domingo","fk_region":"7","fk_comuna":"83","fk_localidad":"102"},{"fecha":"07-05-23","local_id":"758","local_nombre":"EL ALBA","comuna_nombre":"BUIN","localidad_nombre":"BUIN","local_direccion":"FRANCISCO JAVIER KRUGGER 3881. L - 1","funcionamiento_hora_apertura":"08:30:00","funcionamiento_hora_cierre":"21:30:00","local_telefono":"+560228221347","local_lat":"-33.761703","local_lng":"-70.735348","funcionamiento_dia":"domingo","fk_region":"7","fk_comuna":"83","fk_localidad":"102"},{"fecha":"07-05-23","local_id":"760","local_nombre":"PLAZA BUIN","comuna_nombre":"BUIN","localidad_nombre":"BUIN","local_direccion":"JOSE MANUEL BALMACEDA 899","funcionamiento_hora_apertura":"00:00:00","funcionamiento_hora_cierre":"00:00:00","local_telefono":"+560228212910","local_lat":"-33.732228","local_lng":"-70.748244","funcionamiento_dia":"domingo","fk_region":"7","fk_comuna":"83","fk_localidad":"102"},{"fecha":"07-05-23","local_id":"765","local_nombre":"SALCOBRAND","comuna_nombre":"BUIN","localidad_nombre":"BUIN","local_direccion":"MAIPO 3147. INTERIOR UNIMARC","funcionamiento_hora_apertura":"10:00:00","funcionamiento_hora_cierre":"20:00:00","local_telefono":"+560228246538","local_lat":"-33.730963","local_lng":"-70.774937","funcionamiento_dia":"domingo","fk_region":"7","fk_comuna":"83","fk_localidad":"102"},{"fecha":"07-05-23","local_id":"766","local_nombre":"CALERA DE TANGO","comuna_nombre":"CALERA DE TANGO","localidad_nombre":"CALERA DE TANGO","local_direccion":"CALERA DE TANGO 593-B. PARADERO 9. LOCAL 3","funcionamiento_hora_apertura":"10:00:00","funcionamiento_hora_cierre":"15:00:00","local_telefono":"+560228551067","local_lat":"-33.629789","local_lng":"-70.762771","funcionamiento_dia":"domingo","fk_region":"7","fk_comuna":"84","fk_localidad":"103"},{"fecha":"07-05-23","local_id":"767","local_nombre":"CRUZ VERDE","comuna_nombre":"CALERA DE TANGO","localidad_nombre":"CALERA DE TANGO","local_direccion":"CAMINO LONQUEN. S\/N INTERIOR SUPERMERCADO.","funcionamiento_hora_apertura":"09:00:00","funcionamiento_hora_cierre":"21:30:00","local_telefono":"+560228555868","local_lat":"-33.573438","local_lng":"-70.768774","funcionamiento_dia":"domingo","fk_region":"7","fk_comuna":"84","fk_localidad":"103"},{"fecha":"07-05-23","local_id":"771","local_nombre":"AHUMADA","comuna_nombre":"CERRILLOS","localidad_nombre":"CERRILLOS","local_direccion":"AMERICO VESPUCIO 2500. INTERIOR LIDER","funcionamiento_hora_apertura":"09:00:00","funcionamiento_hora_cierre":"22:00:00","local_telefono":"+560225397251","local_lat":"-33.518821","local_lng":"-70.707453","funcionamiento_dia":"domingo","fk_region":"7","fk_comuna":"85","fk_localidad":"104"},{"fecha":"07-05-23","local_id":"777","local_nombre":"LA FE","comuna_nombre":"CERRILLOS","localidad_nombre":"CERRILLOS","local_direccion":"PASAJE LAS TINAJAS 7596. L-5","funcionamiento_hora_apertura":"10:00:00","funcionamiento_hora_cierre":"22:30:00","local_telefono":"+560225578475","local_lat":"-33.504598","local_lng":"-70.71962","funcionamiento_dia":"domingo","fk_region":"7","fk_comuna":"85","fk_localidad":"104"},{"fecha":"07-05-23","local_id":"778","local_nombre":"VILLA MEXICO","comuna_nombre":"CERRILLOS","localidad_nombre":"CERRILLOS","local_direccion":"5 DE ABRIL 1094","funcionamiento_hora_apertura":"08:30:00","funcionamiento_hora_cierre":"21:30:00","local_telefono":"+560225575031","local_lat":"-33.509773","local_lng":"-70.731929","funcionamiento_dia":"domingo","fk_region":"7","fk_comuna":"85","fk_localidad":"104"},{"fecha":"07-05-23","local_id":"780","local_nombre":"SALCOBRAND","comuna_nombre":"CERRILLOS","localidad_nombre":"CERRILLOS","local_direccion":"AV. AMERICO VESPUCIO 1501. INTERIOR MALL PLAZA OESTE. LOCAL 257 C-262","funcionamiento_hora_apertura":"10:00:00","funcionamiento_hora_cierre":"21:30:00","local_telefono":"+560228984780","local_lat":"-33.515049","local_lng":"-70.717181","funcionamiento_dia":"domingo","fk_region":"7","fk_comuna":"85","fk_localidad":"104"},{"fecha":"07-05-23","local_id":"783","local_nombre":"DAVIFAR","comuna_nombre":"CERRO NAVIA","localidad_nombre":"CERRO NAVIA","local_direccion":"AV. JOSE JOAQUIN PEREZ 6570. INTERIOR ALVI","funcionamiento_hora_apertura":"08:30:00","funcionamiento_hora_cierre":"21:30:00","local_telefono":"+560292323270","local_lat":"-33.429131","local_lng":"-70.726508","funcionamiento_dia":"domingo","fk_region":"7","fk_comuna":"86","fk_localidad":"105"},{"fecha":"07-05-23","local_id":"786","local_nombre":"ECONOSUR","comuna_nombre":"CERRO NAVIA","localidad_nombre":"CERRO NAVIA","local_direccion":"AV. JOSE JOAQUIN PEREZ 6915-A","funcionamiento_hora_apertura":"10:00:00","funcionamiento_hora_cierre":"22:00:00","local_telefono":"+560226452593","local_lat":"-33.428999","local_lng":"-70.730842","funcionamiento_dia":"domingo","fk_region":"7","fk_comuna":"86","fk_localidad":"105"},{"fecha":"07-05-23","local_id":"787","local_nombre":"SANTO THOMAS","comuna_nombre":"CERRO NAVIA","localidad_nombre":"CERRO NAVIA","local_direccion":"AV. JOSE JOAQUIN PEREZ 7441, LOCAL B","funcionamiento_hora_apertura":"10:00:00","funcionamiento_hora_cierre":"20:30:00","local_telefono":"+560226499885","local_lat":"-33.429812","local_lng":"-70.740262","funcionamiento_dia":"domingo","fk_region":"7","fk_comuna":"86","fk_localidad":"105"},{"fecha":"07-05-23","local_id":"789","local_nombre":"SILVA ","comuna_nombre":"CERRO NAVIA","localidad_nombre":"CERRO NAVIA","local_direccion":"SALVADOR GUTIERREZ 7990 L-2","funcionamiento_hora_apertura":"10:00:00","funcionamiento_hora_cierre":"22:30:00","local_telefono":"+560226400664","local_lat":"-33.416828","local_lng":"-70.75024","funcionamiento_dia":"domingo","fk_region":"7","fk_comuna":"86","fk_localidad":"105"},{"fecha":"07-05-23","local_id":"794","local_nombre":"LA UNION ","comuna_nombre":"CERRO NAVIA","localidad_nombre":"CERRO NAVIA","local_direccion":"SALVADOR GUTIERREZ 8165 L-B","funcionamiento_hora_apertura":"10:00:00","funcionamiento_hora_cierre":"14:00:00","local_telefono":"+560226499533","local_lat":"-33.416666","local_lng":"-70.756012","funcionamiento_dia":"domingo","fk_region":"7","fk_comuna":"86","fk_localidad":"105"},{"fecha":"07-05-23","local_id":"795","local_nombre":"NEPTUNO","comuna_nombre":"CERRO NAVIA","localidad_nombre":"CERRO NAVIA","local_direccion":"AV. JOSE JOAQUIN PEREZ 6107 L-A","funcionamiento_hora_apertura":"10:00:00","funcionamiento_hora_cierre":"14:00:00","local_telefono":"+560227720401","local_lat":"-33.430582","local_lng":"-70.720156","funcionamiento_dia":"domingo","fk_region":"7","fk_comuna":"86","fk_localidad":"105"},{"fecha":"07-05-23","local_id":"796","local_nombre":"AHUMADA","comuna_nombre":"COLINA","localidad_nombre":"COLINA","local_direccion":"CAMINO CHICUREO ESQUINA LOS INGLESES. LOCAL 13.","funcionamiento_hora_apertura":"09:00:00","funcionamiento_hora_cierre":"21:00:00","local_telefono":"+560","local_lat":"-33.285167","local_lng":"-70.680634","funcionamiento_dia":"domingo","fk_region":"7","fk_comuna":"87","fk_localidad":"106"},{"fecha":"07-05-23","local_id":"797","local_nombre":"AHUMADA","comuna_nombre":"COLINA","localidad_nombre":"COLINA","local_direccion":"COLINA SUR 14500. INTERIOR LIDER","funcionamiento_hora_apertura":"09:00:00","funcionamiento_hora_cierre":"21:00:00","local_telefono":"+560226313210","local_lat":"-33.276682","local_lng":"-70.628112","funcionamiento_dia":"domingo","fk_region":"7","fk_comuna":"87","fk_localidad":"106"},{"fecha":"07-05-23","local_id":"799","local_nombre":"AHUMADA","comuna_nombre":"COLINA","localidad_nombre":"COLINA","local_direccion":"GENERAL SAN MARTIN 068. STRIP CENTER MONTSERRAT","funcionamiento_hora_apertura":"08:30:00","funcionamiento_hora_cierre":"21:30:00","local_telefono":"+560226313092","local_lat":"-33.20679","local_lng":"-70.677604","funcionamiento_dia":"domingo","fk_region":"7","fk_comuna":"87","fk_localidad":"106"},{"fecha":"07-05-23","local_id":"800","local_nombre":"BELEN","comuna_nombre":"COLINA","localidad_nombre":"COLINA","local_direccion":"CARRETERA GENERAL SAN MARTIN 381","funcionamiento_hora_apertura":"10:00:00","funcionamiento_hora_cierre":"20:00:00","local_telefono":"+560228442317","local_lat":"-33.201996","local_lng":"-70.673851","funcionamiento_dia":"domingo","fk_region":"7","fk_comuna":"87","fk_localidad":"106"},{"fecha":"07-05-23","local_id":"801","local_nombre":"CRUZ VERDE","comuna_nombre":"COLINA","localidad_nombre":"COLINA","local_direccion":"AV. LA INMACULADA CONCEPCION 47 LOCALES 4,5,6. INTERIOR TOTTUS","funcionamiento_hora_apertura":"09:00:00","funcionamiento_hora_cierre":"21:00:00","local_telefono":"+560228442476","local_lat":"-33.204402","local_lng":"-70.676177","funcionamiento_dia":"domingo","fk_region":"7","fk_comuna":"87","fk_localidad":"106"},{"fecha":"07-05-23","local_id":"802","local_nombre":"CRUZ VERDE","comuna_nombre":"COLINA","localidad_nombre":"COLINA","local_direccion":"CARRETERA GENERAL SAN MARTIN 068. STRIP CENTER MONTSERRAT","funcionamiento_hora_apertura":"10:00:00","funcionamiento_hora_cierre":"21:30:00","local_telefono":"+560228601325","local_lat":"-33.206653","local_lng":"-70.67745","funcionamiento_dia":"domingo","fk_region":"7","fk_comuna":"87","fk_localidad":"106"},{"fecha":"07-05-23","local_id":"807","local_nombre":"NUEVA REAL","comuna_nombre":"COLINA","localidad_nombre":"COLINA","local_direccion":"AV. LA INMACULADA CONCEPCION 86-A","funcionamiento_hora_apertura":"09:00:00","funcionamiento_hora_cierre":"15:00:00","local_telefono":"+560228601073","local_lat":"-33.204546","local_lng":"-70.675481","funcionamiento_dia":"domingo","fk_region":"7","fk_comuna":"87","fk_localidad":"106"},{"fecha":"07-05-23","local_id":"808","local_nombre":"SAN MARTIN","comuna_nombre":"COLINA","localidad_nombre":"COLINA","local_direccion":"CARRETERA GENERAL SAN MARTIN 071. L-A","funcionamiento_hora_apertura":"09:30:00","funcionamiento_hora_cierre":"14:00:00","local_telefono":"+560228441341","local_lat":"-33.204707","local_lng":"-70.675653","funcionamiento_dia":"domingo","fk_region":"7","fk_comuna":"87","fk_localidad":"106"},{"fecha":"07-05-23","local_id":"809","local_nombre":"SALCOBRAND","comuna_nombre":"COLINA","localidad_nombre":"COLINA","local_direccion":"CAMINO CHICUREO. LOTE 2. C3. L-1 FUNDO EL CASTILLO","funcionamiento_hora_apertura":"10:00:00","funcionamiento_hora_cierre":"23:00:00","local_telefono":"+560227388821","local_lat":"-33.28584","local_lng":"-70.675528","funcionamiento_dia":"domingo","fk_region":"7","fk_comuna":"87","fk_localidad":"106"},{"fecha":"07-05-23","local_id":"810","local_nombre":"SALCOBRAND","comuna_nombre":"COLINA","localidad_nombre":"COLINA","local_direccion":"CARRETERA GENERAL SAN MARTIN. KM 6.3","funcionamiento_hora_apertura":"09:00:00","funcionamiento_hora_cierre":"23:00:00","local_telefono":"+560227455494","local_lat":"-33.286342","local_lng":"-70.675789","funcionamiento_dia":"domingo","fk_region":"7","fk_comuna":"87","fk_localidad":"106"},{"fecha":"07-05-23","local_id":"811","local_nombre":"SALCOBRAND","comuna_nombre":"COLINA","localidad_nombre":"COLINA","local_direccion":"LA HIJUELA DE ALGARROBAL. LOCAL 11-B","funcionamiento_hora_apertura":"10:00:00","funcionamiento_hora_cierre":"20:00:00","local_telefono":"+560297506433","local_lat":"-33.278084","local_lng":"-70.703552","funcionamiento_dia":"domingo","fk_region":"7","fk_comuna":"87","fk_localidad":"106"},{"fecha":"07-05-23","local_id":"812","local_nombre":"AHUMADA","comuna_nombre":"CONCHALI","localidad_nombre":"CONCHALI","local_direccion":"AV. INDEPENDENCIA 4142. INTERIOR LIDER","funcionamiento_hora_apertura":"09:00:00","funcionamiento_hora_cierre":"22:00:00","local_telefono":"+560226313268","local_lat":"-33.391512","local_lng":"-70.675618","funcionamiento_dia":"domingo","fk_region":"7","fk_comuna":"88","fk_localidad":"107"},{"fecha":"07-05-23","local_id":"813","local_nombre":"AHUMADA","comuna_nombre":"CONCHALI","localidad_nombre":"CONCHALI","local_direccion":"PEDRO FONTOVA 5810. INTERIOR TOTTUS","funcionamiento_hora_apertura":"10:00:00","funcionamiento_hora_cierre":"21:30:00","local_telefono":"+560226313061","local_lat":"-33.371545","local_lng":"-70.671232","funcionamiento_dia":"domingo","fk_region":"7","fk_comuna":"88","fk_localidad":"107"},{"fecha":"07-05-23","local_id":"814","local_nombre":"BELEN","comuna_nombre":"CONCHALI","localidad_nombre":"CONCHALI","local_direccion":"INDEPENDENCIA 6035","funcionamiento_hora_apertura":"08:30:00","funcionamiento_hora_cierre":"21:30:00","local_telefono":"+560226236843","local_lat":"-33.369164","local_lng":"-70.688358","funcionamiento_dia":"domingo","fk_region":"7","fk_comuna":"88","fk_localidad":"107"},{"fecha":"07-05-23","local_id":"815","local_nombre":"BELEN","comuna_nombre":"CONCHALI","localidad_nombre":"CONCHALI","local_direccion":"AV. INDEPENDENCIA 3408","funcionamiento_hora_apertura":"08:30:00","funcionamiento_hora_cierre":"00:00:00","local_telefono":"+560222477423","local_lat":"-33.396802","local_lng":"-70.670782","funcionamiento_dia":"domingo","fk_region":"7","fk_comuna":"88","fk_localidad":"107"},{"fecha":"07-05-23","local_id":"816","local_nombre":"BELEN","comuna_nombre":"CONCHALI","localidad_nombre":"CONCHALI","local_direccion":"AV. INDEPENDENCIA 4884","funcionamiento_hora_apertura":"10:00:00","funcionamiento_hora_cierre":"23:00:00","local_telefono":"+560227342612","local_lat":"-33.384673","local_lng":"-70.680374","funcionamiento_dia":"domingo","fk_region":"7","fk_comuna":"88","fk_localidad":"107"},{"fecha":"07-05-23","local_id":"817","local_nombre":"CRUZ VERDE","comuna_nombre":"CONCHALI","localidad_nombre":"CONCHALI","local_direccion":"CARDENAL JOSE MARIA CARO 1771. INTERIOR SANTA ISABEL","funcionamiento_hora_apertura":"09:00:00","funcionamiento_hora_cierre":"22:00:00","local_telefono":"+560226230404","local_lat":"-33.373601","local_lng":"-70.681658","funcionamiento_dia":"domingo","fk_region":"7","fk_comuna":"88","fk_localidad":"107"},{"fecha":"07-05-23","local_id":"819","local_nombre":"CRUZ VERDE","comuna_nombre":"CONCHALI","localidad_nombre":"CONCHALI","local_direccion":"AV. INDEPENDENCIA 3557 LOCAL 1","funcionamiento_hora_apertura":"09:00:00","funcionamiento_hora_cierre":"21:00:00","local_telefono":"+560227286094","local_lat":"-33.395801","local_lng":"-70.671745","funcionamiento_dia":"domingo","fk_region":"7","fk_comuna":"88","fk_localidad":"107"},{"fecha":"07-05-23","local_id":"820","local_nombre":"CRUZ VERDE ","comuna_nombre":"CONCHALI","localidad_nombre":"CONCHALI","local_direccion":"AV. INDEPENDENCIA 4801","funcionamiento_hora_apertura":"10:00:00","funcionamiento_hora_cierre":"00:00:00","local_telefono":"+560222074753","local_lat":"-33.384684","local_lng":"-70.680084","funcionamiento_dia":"domingo","fk_region":"7","fk_comuna":"88","fk_localidad":"107"},{"fecha":"07-05-23","local_id":"827","local_nombre":"CRUZ VERDE","comuna_nombre":"CURACAVI","localidad_nombre":"CURACAVI","local_direccion":"PRESBITERO MORAGA SUR 1","funcionamiento_hora_apertura":"09:00:00","funcionamiento_hora_cierre":"21:00:00","local_telefono":"+560228352715","local_lat":"-33.402767","local_lng":"-71.129139","funcionamiento_dia":"domingo","fk_region":"7","fk_comuna":"89","fk_localidad":"108"},{"fecha":"07-05-23","local_id":"828","local_nombre":"CURACAVI","comuna_nombre":"CURACAVI","localidad_nombre":"CURACAVI","local_direccion":"GERMAN RIESCO 111 L-A","funcionamiento_hora_apertura":"11:00:00","funcionamiento_hora_cierre":"14:00:00","local_telefono":"+560228353283","local_lat":"-33.40257","local_lng":"-71.129915","funcionamiento_dia":"domingo","fk_region":"7","fk_comuna":"89","fk_localidad":"108"},{"fecha":"07-05-23","local_id":"829","local_nombre":"EL SOL","comuna_nombre":"CURACAVI","localidad_nombre":"CURACAVI","local_direccion":"AMBROSIO O'HIGGINS 1447","funcionamiento_hora_apertura":"08:30:00","funcionamiento_hora_cierre":"21:30:00","local_telefono":"+560228363285","local_lat":"-33.404934","local_lng":"-71.135298","funcionamiento_dia":"domingo","fk_region":"7","fk_comuna":"89","fk_localidad":"108"},{"fecha":"07-05-23","local_id":"831","local_nombre":"AHUMADA","comuna_nombre":"EL BOSQUE","localidad_nombre":"EL BOSQUE","local_direccion":"RIQUELME 69. LOCALES 3 Y 4. INTERIOR SUPERMERCADO LIDER","funcionamiento_hora_apertura":"08:30:00","funcionamiento_hora_cierre":"22:30:00","local_telefono":"+560226313257","local_lat":"-33.54579","local_lng":"-70.667759","funcionamiento_dia":"domingo","fk_region":"7","fk_comuna":"90","fk_localidad":"109"},{"fecha":"07-05-23","local_id":"832","local_nombre":"ALAMEDA","comuna_nombre":"EL BOSQUE","localidad_nombre":"EL BOSQUE","local_direccion":"AV. PADRE HURTADO 10904","funcionamiento_hora_apertura":"08:30:00","funcionamiento_hora_cierre":"21:30:00","local_telefono":"+560225279909","local_lat":"-33.561121","local_lng":"-70.670763","funcionamiento_dia":"domingo","fk_region":"7","fk_comuna":"90","fk_localidad":"109"},{"fecha":"07-05-23","local_id":"835","local_nombre":"BELEN","comuna_nombre":"EL BOSQUE","localidad_nombre":"EL BOSQUE","local_direccion":"AV. LO BLANCO 996 A","funcionamiento_hora_apertura":"10:00:00","funcionamiento_hora_cierre":"22:00:00","local_telefono":"+560225282810","local_lat":"-33.58241","local_lng":"-70.676809","funcionamiento_dia":"domingo","fk_region":"7","fk_comuna":"90","fk_localidad":"109"},{"fecha":"07-05-23","local_id":"836","local_nombre":"BELEN","comuna_nombre":"EL BOSQUE","localidad_nombre":"EL BOSQUE","local_direccion":"AV. PADRE HURTADO 12135","funcionamiento_hora_apertura":"09:00:00","funcionamiento_hora_cierre":"22:00:00","local_telefono":"+560225150897","local_lat":"-33.582698","local_lng":"-70.676898","funcionamiento_dia":"domingo","fk_region":"7","fk_comuna":"90","fk_localidad":"109"},{"fecha":"07-05-23","local_id":"837","local_nombre":"SALUD\/CANAIMA","comuna_nombre":"EL BOSQUE","localidad_nombre":"EL BOSQUE","local_direccion":"JULIO COVARRUBIAS 10004","funcionamiento_hora_apertura":"08:30:00","funcionamiento_hora_cierre":"21:30:00","local_telefono":"+560225489899","local_lat":"-33.55352","local_lng":"-70.660676","funcionamiento_dia":"domingo","fk_region":"7","fk_comuna":"90","fk_localidad":"109"},{"fecha":"07-05-23","local_id":"839","local_nombre":"CRUZ VERDE","comuna_nombre":"EL BOSQUE","localidad_nombre":"EL BOSQUE","local_direccion":"GRAN AVENIDA JOSE MIGUEL CARRERA 10375. LOCAL 40. INTERIOR TOTTUS","funcionamiento_hora_apertura":"09:10:00","funcionamiento_hora_cierre":"22:00:00","local_telefono":"+560222301885","local_lat":"-33.55402","local_lng":"-70.675009","funcionamiento_dia":"domingo","fk_region":"7","fk_comuna":"90","fk_localidad":"109"},{"fecha":"07-05-23","local_id":"840","local_nombre":"CRUZ VERDE","comuna_nombre":"EL BOSQUE","localidad_nombre":"EL BOSQUE","local_direccion":"GRAN AVENIDA JOSE MIGUEL CARRERA 9863","funcionamiento_hora_apertura":"10:00:00","funcionamiento_hora_cierre":"20:00:00","local_telefono":"+560225479262","local_lat":"-33.55014","local_lng":"-70.671941","funcionamiento_dia":"domingo","fk_region":"7","fk_comuna":"90","fk_localidad":"109"},{"fecha":"07-05-23","local_id":"841","local_nombre":"CRUZ VERDE ","comuna_nombre":"EL BOSQUE","localidad_nombre":"EL BOSQUE","local_direccion":"GRAN AVENIDA JOSE MIGUEL CARRERA 13065","funcionamiento_hora_apertura":"09:00:00","funcionamiento_hora_cierre":"21:00:00","local_telefono":"+560225294419","local_lat":"-33.574529","local_lng":"-70.690897","funcionamiento_dia":"domingo","fk_region":"7","fk_comuna":"90","fk_localidad":"109"},{"fecha":"07-05-23","local_id":"847","local_nombre":"LOS MAQUIS","comuna_nombre":"EL BOSQUE","localidad_nombre":"EL BOSQUE","local_direccion":"OBSERVATORIO 1055","funcionamiento_hora_apertura":"08:30:00","funcionamiento_hora_cierre":"21:30:00","local_telefono":"+5602225593925","local_lat":"-33.561361","local_lng":"-70.663524","funcionamiento_dia":"domingo","fk_region":"7","fk_comuna":"90","fk_localidad":"109"},{"fecha":"07-05-23","local_id":"857","local_nombre":"AHUMADA","comuna_nombre":"ESTACION CENTRAL","localidad_nombre":"ESTACION CENTRAL","local_direccion":"AV. LIBERTADOR BERNARDO O'HIGGINS 5199. LOCAL - 2. INTERIOR ESPACIO URBANO","funcionamiento_hora_apertura":"09:00:00","funcionamiento_hora_cierre":"22:00:00","local_telefono":"+560226313387","local_lat":"-33.457041","local_lng":"-70.70509","funcionamiento_dia":"domingo","fk_region":"7","fk_comuna":"92","fk_localidad":"111"},{"fecha":"07-05-23","local_id":"858","local_nombre":"AHUMADA","comuna_nombre":"ESTACION CENTRAL","localidad_nombre":"ESTACION CENTRAL","local_direccion":"PADRE ALBERTO HURTADO 60. INTERIOR LIDER","funcionamiento_hora_apertura":"09:00:00","funcionamiento_hora_cierre":"22:00:00","local_telefono":"+560227645558","local_lat":"-33.452695","local_lng":"-70.69151","funcionamiento_dia":"domingo","fk_region":"7","fk_comuna":"92","fk_localidad":"111"},{"fecha":"07-05-23","local_id":"861","local_nombre":"BELGOCHILENA","comuna_nombre":"ESTACION CENTRAL","localidad_nombre":"ESTACION CENTRAL","local_direccion":"AV. LIBERTADOR BERNARDO O'HIGGINS 3700. INTERIOR TERMINAL DE BUSES","funcionamiento_hora_apertura":"08:00:00","funcionamiento_hora_cierre":"22:30:00","local_telefono":"+560227765182","local_lat":"-33.453930","local_lng":"-70.687752","funcionamiento_dia":"domingo","fk_region":"7","fk_comuna":"92","fk_localidad":"111"},{"fecha":"07-05-23","local_id":"862","local_nombre":"CARRERA","comuna_nombre":"ESTACION CENTRAL","localidad_nombre":"ESTACION CENTRAL","local_direccion":"LOS PINGUINOS 4294","funcionamiento_hora_apertura":"10:00:00","funcionamiento_hora_cierre":"14:00:00","local_telefono":"+560227791393","local_lat":"-33.471008","local_lng":"-70.692411","funcionamiento_dia":"domingo","fk_region":"7","fk_comuna":"92","fk_localidad":"111"},{"fecha":"07-05-23","local_id":"865","local_nombre":"CRUZ VERDE","comuna_nombre":"ESTACION CENTRAL","localidad_nombre":"ESTACION CENTRAL","local_direccion":"AV. LIBERTADOR BERNARDO O'HIGGINS 3250. PASEO ARAUCO ESTACION","funcionamiento_hora_apertura":"09:30:00","funcionamiento_hora_cierre":"22:00:00","local_telefono":"+560226890714","local_lat":"-33.451139","local_lng":"-70.679883","funcionamiento_dia":"domingo","fk_region":"7","fk_comuna":"92","fk_localidad":"111"},{"fecha":"07-05-23","local_id":"867","local_nombre":"CRUZ VERDE","comuna_nombre":"ESTACION CENTRAL","localidad_nombre":"ESTACION CENTRAL","local_direccion":"AV. LIBERTADOR BERNARDO O'HIGGINS 3806-3810","funcionamiento_hora_apertura":"09:30:00","funcionamiento_hora_cierre":"22:00:00","local_telefono":"+560223761879","local_lat":"-33.453339","local_lng":"-70.687819","funcionamiento_dia":"domingo","fk_region":"7","fk_comuna":"92","fk_localidad":"111"},{"fecha":"07-05-23","local_id":"869","local_nombre":"CRUZ VERDE","comuna_nombre":"ESTACION CENTRAL","localidad_nombre":"ESTACION CENTRAL","local_direccion":"SAN BORJA 184. LOCAL 506 - 508. PASEO ARAUCO ESTACION","funcionamiento_hora_apertura":"09:30:00","funcionamiento_hora_cierre":"22:00:00","local_telefono":"+560227643873","local_lat":"-33.453006","local_lng":"-70.680365","funcionamiento_dia":"domingo","fk_region":"7","fk_comuna":"92","fk_localidad":"111"},{"fecha":"07-05-23","local_id":"871","local_nombre":"DEL DR. SIMI ","comuna_nombre":"ESTACION CENTRAL","localidad_nombre":"ESTACION CENTRAL","local_direccion":"AV. LIBERTADOR BERNARDO O'HIGGINS 4102","funcionamiento_hora_apertura":"09:00:00","funcionamiento_hora_cierre":"15:00:00","local_telefono":"+560223610321","local_lat":"-33.454199","local_lng":"-70.692347","funcionamiento_dia":"domingo","fk_region":"7","fk_comuna":"92","fk_localidad":"111"},{"fecha":"07-05-23","local_id":"873","local_nombre":"ELENA","comuna_nombre":"ESTACION CENTRAL","localidad_nombre":"ESTACION CENTRAL","local_direccion":"5 DE ABRIL 5940","funcionamiento_hora_apertura":"08:30:00","funcionamiento_hora_cierre":"21:30:00","local_telefono":"+560227640567","local_lat":"-33.465727","local_lng":"-70.708569","funcionamiento_dia":"domingo","fk_region":"7","fk_comuna":"92","fk_localidad":"111"},{"fecha":"07-05-23","local_id":"877","local_nombre":"PURA SALUD","comuna_nombre":"ESTACION CENTRAL","localidad_nombre":"ESTACION CENTRAL","local_direccion":"5 DE ABRIL 4698","funcionamiento_hora_apertura":"08:30:00","funcionamiento_hora_cierre":"21:30:00","local_telefono":"+560227767163 - 8435","local_lat":"-33.461825","local_lng":"-70.698417","funcionamiento_dia":"domingo","fk_region":"7","fk_comuna":"92","fk_localidad":"111"},{"fecha":"07-05-23","local_id":"882","local_nombre":"SALCOBRAND","comuna_nombre":"ESTACION CENTRAL","localidad_nombre":"ESTACION CENTRAL","local_direccion":"AV. LIBERTADOR BERNARDO O'HIGGINS 3307","funcionamiento_hora_apertura":"10:00:00","funcionamiento_hora_cierre":"21:00:00","local_telefono":"+560226816872","local_lat":"-33.450755","local_lng":"-70.679185","funcionamiento_dia":"domingo","fk_region":"7","fk_comuna":"92","fk_localidad":"111"},{"fecha":"07-05-23","local_id":"883","local_nombre":"SALCOBRAND","comuna_nombre":"ESTACION CENTRAL","localidad_nombre":"ESTACION CENTRAL","local_direccion":"AV. LIBERTADOR BERNARDO O'HIGGINS 3470. MALL PLAZA AHUMADA","funcionamiento_hora_apertura":"10:00:00","funcionamiento_hora_cierre":"21:30:00","local_telefono":"+560228987833","local_lat":"-33.451979","local_lng":"-70.682283","funcionamiento_dia":"domingo","fk_region":"7","fk_comuna":"92","fk_localidad":"111"},{"fecha":"07-05-23","local_id":"886","local_nombre":"SALCOBRAND","comuna_nombre":"ESTACION CENTRAL","localidad_nombre":"ESTACION CENTRAL","local_direccion":"SAN FRANCISCO DE BORJA 122. PASEO ARAUCO ESTACION","funcionamiento_hora_apertura":"09:00:00","funcionamiento_hora_cierre":"22:00:00","local_telefono":"+560224632647","local_lat":"-33.453167","local_lng":"-70.68039","funcionamiento_dia":"domingo","fk_region":"7","fk_comuna":"92","fk_localidad":"111"},{"fecha":"07-05-23","local_id":"887","local_nombre":"SALCOBRAND","comuna_nombre":"ESTACION CENTRAL","localidad_nombre":"ESTACION CENTRAL","local_direccion":"AV. LIBERTADOR BERNARDO O'HIGGINS 3250, LOCAL 87. ESTACION CENTRAL","funcionamiento_hora_apertura":"08:00:00","funcionamiento_hora_cierre":"22:00:00","local_telefono":"+560227799503","local_lat":"-33.451101","local_lng":"-70.679644","funcionamiento_dia":"domingo","fk_region":"7","fk_comuna":"92","fk_localidad":"111"},{"fecha":"07-05-23","local_id":"888","local_nombre":"SALCOBRAND","comuna_nombre":"HUECHURABA","localidad_nombre":"HUECHURABA","local_direccion":"AV. AMERICO VESPUCIO 1737. L-P-1285, P-1281. MALL PLAZA NORTE","funcionamiento_hora_apertura":"10:00:00","funcionamiento_hora_cierre":"21:30:00","local_telefono":"+560227211284","local_lat":"-33.368062","local_lng":"-70.678301","funcionamiento_dia":"domingo","fk_region":"7","fk_comuna":"93","fk_localidad":"112"},{"fecha":"07-05-23","local_id":"889","local_nombre":"SALCOBRAND","comuna_nombre":"HUECHURABA","localidad_nombre":"HUECHURABA","local_direccion":"AV. AMERICO VESPUCIO 1737. LOCAL 1005. MALL PLAZA NORTE","funcionamiento_hora_apertura":"09:00:00","funcionamiento_hora_cierre":"22:00:00","local_telefono":"+560225860511","local_lat":"-33.368062","local_lng":"-70.678301","funcionamiento_dia":"domingo","fk_region":"7","fk_comuna":"93","fk_localidad":"112"},{"fecha":"07-05-23","local_id":"890","local_nombre":"AHUMADA","comuna_nombre":"HUECHURABA","localidad_nombre":"HUECHURABA","local_direccion":"AV. AMERICO VESPUCIO 1737. INTERIOR LIDER","funcionamiento_hora_apertura":"09:00:00","funcionamiento_hora_cierre":"22:00:00","local_telefono":"+560226313369","local_lat":"-33.368062","local_lng":"-70.678301","funcionamiento_dia":"domingo","fk_region":"7","fk_comuna":"93","fk_localidad":"112"},{"fecha":"07-05-23","local_id":"892","local_nombre":"AHUMADA ","comuna_nombre":"HUECHURABA","localidad_nombre":"HUECHURABA","local_direccion":"AV. PEDRO FONTOVA 7571","funcionamiento_hora_apertura":"09:00:00","funcionamiento_hora_cierre":"23:00:00","local_telefono":"+560226313242","local_lat":"-33.351179","local_lng":"-70.670396","funcionamiento_dia":"domingo","fk_region":"7","fk_comuna":"93","fk_localidad":"112"},{"fecha":"07-05-23","local_id":"893","local_nombre":"CRUZ VERDE","comuna_nombre":"HUECHURABA","localidad_nombre":"HUECHURABA","local_direccion":"AV. AMERICO VESPUCIO 1737. L- 1193 MALL PLAZA NORTE","funcionamiento_hora_apertura":"10:00:00","funcionamiento_hora_cierre":"21:30:00","local_telefono":"+560225860368","local_lat":"-33.36799","local_lng":"-70.678378","funcionamiento_dia":"domingo","fk_region":"7","fk_comuna":"93","fk_localidad":"112"},{"fecha":"07-05-23","local_id":"895","local_nombre":"CRUZ VERDE","comuna_nombre":"HUECHURABA","localidad_nombre":"HUECHURABA","local_direccion":"AV. PEDRO FONTOVA 7789. L-4","funcionamiento_hora_apertura":"10:00:00","funcionamiento_hora_cierre":"22:00:00","local_telefono":"+560227210528","local_lat":"-33.347738","local_lng":"-70.670353","funcionamiento_dia":"domingo","fk_region":"7","fk_comuna":"93","fk_localidad":"112"},{"fecha":"07-05-23","local_id":"897","local_nombre":"FARMAVIDA ","comuna_nombre":"HUECHURABA","localidad_nombre":"HUECHURABA","local_direccion":"AV. RECOLETA 5418","funcionamiento_hora_apertura":"08:30:00","funcionamiento_hora_cierre":"21:30:00","local_telefono":"+560226262195","local_lat":"-33.376326","local_lng":"-70.637787","funcionamiento_dia":"domingo","fk_region":"7","fk_comuna":"93","fk_localidad":"112"},{"fecha":"07-05-23","local_id":"899","local_nombre":"SALCOBRAND","comuna_nombre":"HUECHURABA","localidad_nombre":"HUECHURABA","local_direccion":"AV. PEDRO FONTOVA 7777. L-2","funcionamiento_hora_apertura":"09:00:00","funcionamiento_hora_cierre":"22:00:00","local_telefono":"+560227210939","local_lat":"-33.348222","local_lng":"-70.670417","funcionamiento_dia":"domingo","fk_region":"7","fk_comuna":"93","fk_localidad":"112"},{"fecha":"07-05-23","local_id":"904","local_nombre":"MEDDICA","comuna_nombre":"INDEPENDENCIA","localidad_nombre":"INDEPENDENCIA","local_direccion":"AV. INDEPENDENCIA 1102","funcionamiento_hora_apertura":"09:00:00","funcionamiento_hora_cierre":"20:00:00","local_telefono":"+560227351648","local_lat":"-33.41751","local_lng":"-70.656496","funcionamiento_dia":"domingo","fk_region":"7","fk_comuna":"94","fk_localidad":"113"},{"fecha":"07-05-23","local_id":"905","local_nombre":"URGENCIA - CRUZ VERDE","comuna_nombre":"INDEPENDENCIA","localidad_nombre":"INDEPENDENCIA","local_direccion":"INDEPENDENCIA 2127. INTERIOR MONTSERRAT","funcionamiento_hora_apertura":"00:00:00","funcionamiento_hora_cierre":"00:00:00","local_telefono":"+560227777528","local_lat":"-33.406802","local_lng":"-70.660646","funcionamiento_dia":"domingo","fk_region":"7","fk_comuna":"94","fk_localidad":"113"},{"fecha":"07-05-23","local_id":"906","local_nombre":"CRUZ VERDE","comuna_nombre":"INDEPENDENCIA","localidad_nombre":"INDEPENDENCIA","local_direccion":"VIVACETA 975. INTERIOR SANTA ISABEL","funcionamiento_hora_apertura":"10:00:00","funcionamiento_hora_cierre":"21:30:00","local_telefono":"+560227773119","local_lat":"-33.419606","local_lng":"-70.663331","funcionamiento_dia":"domingo","fk_region":"7","fk_comuna":"94","fk_localidad":"113"},{"fecha":"07-05-23","local_id":"907","local_nombre":"CRUZ VERDE ","comuna_nombre":"INDEPENDENCIA","localidad_nombre":"INDEPENDENCIA","local_direccion":"AV. INDEPENDENCIA 936","funcionamiento_hora_apertura":"10:00:00","funcionamiento_hora_cierre":"21:30:00","local_telefono":"+560223800651","local_lat":"-33.420034","local_lng":"-70.655933","funcionamiento_dia":"domingo","fk_region":"7","fk_comuna":"94","fk_localidad":"113"},{"fecha":"07-05-23","local_id":"910","local_nombre":"MAESTRE","comuna_nombre":"INDEPENDENCIA","localidad_nombre":"INDEPENDENCIA","local_direccion":"AV. SALOMON SACK 928","funcionamiento_hora_apertura":"08:30:00","funcionamiento_hora_cierre":"21:30:00","local_telefono":"+560227376512","local_lat":"-33.414275","local_lng":"-70.678147","funcionamiento_dia":"domingo","fk_region":"7","fk_comuna":"94","fk_localidad":"113"},{"fecha":"07-05-23","local_id":"914","local_nombre":"SANTA LAURA","comuna_nombre":"INDEPENDENCIA","localidad_nombre":"INDEPENDENCIA","local_direccion":"SANTA LAURA 1435","funcionamiento_hora_apertura":"08:30:00","funcionamiento_hora_cierre":"21:30:00","local_telefono":"+560227771247","local_lat":"-33.405615","local_lng":"-70.660912","funcionamiento_dia":"domingo","fk_region":"7","fk_comuna":"94","fk_localidad":"113"},{"fecha":"07-05-23","local_id":"915","local_nombre":"VALLE DE VIDA","comuna_nombre":"INDEPENDENCIA","localidad_nombre":"INDEPENDENCIA","local_direccion":"AV. HIPODROMO CHILE 1372. L-1","funcionamiento_hora_apertura":"10:00:00","funcionamiento_hora_cierre":"21:00:00","local_telefono":"+560227375072","local_lat":"-33.407093","local_lng":"-70.660249","funcionamiento_dia":"domingo","fk_region":"7","fk_comuna":"94","fk_localidad":"113"},{"fecha":"07-05-23","local_id":"921","local_nombre":"ECUANASER","comuna_nombre":"ISLA DE MAIPO","localidad_nombre":"ISLA DE MAIPO","local_direccion":"BALMACEDA 3535-LA ISLITA","funcionamiento_hora_apertura":"09:00:00","funcionamiento_hora_cierre":"23:00:00","local_telefono":"+560228190532","local_lat":"-33.745037","local_lng":"-70.864777","funcionamiento_dia":"domingo","fk_region":"7","fk_comuna":"95","fk_localidad":"114"},{"fecha":"07-05-23","local_id":"922","local_nombre":"ECUANASER","comuna_nombre":"ISLA DE MAIPO","localidad_nombre":"ISLA DE MAIPO","local_direccion":"AV. SANTELICES 555-C","funcionamiento_hora_apertura":"09:00:00","funcionamiento_hora_cierre":"13:00:00","local_telefono":"+560228199380","local_lat":"-33.754429","local_lng":"-70.900940","funcionamiento_dia":"domingo","fk_region":"7","fk_comuna":"95","fk_localidad":"114"},{"fecha":"07-05-23","local_id":"923","local_nombre":"FARMA-MARKET","comuna_nombre":"ISLA DE MAIPO","localidad_nombre":"ISLA DE MAIPO","local_direccion":"GALVEZ 06","funcionamiento_hora_apertura":"09:30:00","funcionamiento_hora_cierre":"22:00:00","local_telefono":"+560228190180","local_lat":"-33.756367","local_lng":"-70.896568","funcionamiento_dia":"domingo","fk_region":"7","fk_comuna":"95","fk_localidad":"114"},{"fecha":"07-05-23","local_id":"926","local_nombre":"SALCOBRAND","comuna_nombre":"LA CISTERNA","localidad_nombre":"LA CISTERNA","local_direccion":"AMERICO VESPUCIO 33. L-120 Y 121. ESTACION INTERMODAL LA CISTERNA","funcionamiento_hora_apertura":"09:00:00","funcionamiento_hora_cierre":"21:00:00","local_telefono":"+560225581568","local_lat":"-33.538005","local_lng":"-70.664369","funcionamiento_dia":"domingo","fk_region":"7","fk_comuna":"96","fk_localidad":"115"},{"fecha":"07-05-23","local_id":"927","local_nombre":"AHUMADA","comuna_nombre":"LA CISTERNA","localidad_nombre":"LA CISTERNA","local_direccion":"AMERICO VESPUCIO 33. L-26. ESTACION INTERMODAL LA CISTERNA","funcionamiento_hora_apertura":"08:30:00","funcionamiento_hora_cierre":"22:30:00","local_telefono":"+560226313646","local_lat":"-33.538335","local_lng":"-70.663864","funcionamiento_dia":"domingo","fk_region":"7","fk_comuna":"96","fk_localidad":"115"},{"fecha":"07-05-23","local_id":"928","local_nombre":"URGENCIA - AHUMADA","comuna_nombre":"LA CISTERNA","localidad_nombre":"LA CISTERNA","local_direccion":"FERNANDEZ ALBANO 27","funcionamiento_hora_apertura":"00:00:00","funcionamiento_hora_cierre":"23:59:00","local_telefono":"+560226313297","local_lat":"-33.52358","local_lng":"-70.660504","funcionamiento_dia":"domingo","fk_region":"7","fk_comuna":"96","fk_localidad":"115"},{"fecha":"07-05-23","local_id":"929","local_nombre":"BELEN","comuna_nombre":"LA CISTERNA","localidad_nombre":"LA CISTERNA","local_direccion":"GRAN AVENIDA JOSE MIGUEL CARRERA 8701","funcionamiento_hora_apertura":"09:00:00","funcionamiento_hora_cierre":"22:45:00","local_telefono":"+560225580674","local_lat":"-33.5358487","local_lng":"-70.66409249999998","funcionamiento_dia":"domingo","fk_region":"7","fk_comuna":"96","fk_localidad":"115"},{"fecha":"07-05-23","local_id":"931","local_nombre":"CRUZ VERDE","comuna_nombre":"LA CISTERNA","localidad_nombre":"LA CISTERNA","local_direccion":"AMERICO VESPUCIO 33 LOCAL 5 EST.INTERMODAL","funcionamiento_hora_apertura":"09:30:00","funcionamiento_hora_cierre":"22:00:00","local_telefono":"+560225481014","local_lat":"-33.538403","local_lng":"-70.664446","funcionamiento_dia":"domingo","fk_region":"7","fk_comuna":"96","fk_localidad":"115"},{"fecha":"07-05-23","local_id":"935","local_nombre":"DEL DR. SIMI ","comuna_nombre":"LA CISTERNA","localidad_nombre":"LA CISTERNA","local_direccion":"AMERICO VESPUCIO 75. ESTACION INTERMODAL LA CISTERNA","funcionamiento_hora_apertura":"10:00:00","funcionamiento_hora_cierre":"17:00:00","local_telefono":"+560225596686","local_lat":"-33.5378","local_lng":"-70.663723","funcionamiento_dia":"domingo","fk_region":"7","fk_comuna":"96","fk_localidad":"115"},{"fecha":"07-05-23","local_id":"936","local_nombre":"DEL DR. SIMI ","comuna_nombre":"LA CISTERNA","localidad_nombre":"LA CISTERNA","local_direccion":"GRAN AVENIDA JOSE MIGUEL CARRERA 8039. PETROBRAS","funcionamiento_hora_apertura":"08:30:00","funcionamiento_hora_cierre":"21:30:00","local_telefono":"+560225471387","local_lat":"-33.527418","local_lng":"-70.661756","funcionamiento_dia":"domingo","fk_region":"7","fk_comuna":"96","fk_localidad":"115"},{"fecha":"07-05-23","local_id":"944","local_nombre":"MARTINEZ ACU\u00d1A","comuna_nombre":"LA CISTERNA","localidad_nombre":"LA CISTERNA","local_direccion":"GRAN AVENIDA JOSE MIGUEL CARRERA 9303","funcionamiento_hora_apertura":"08:30:00","funcionamiento_hora_cierre":"21:30:00","local_telefono":"+560225592929","local_lat":"-33.54348","local_lng":"-70.666708","funcionamiento_dia":"domingo","fk_region":"7","fk_comuna":"96","fk_localidad":"115"},{"fecha":"07-05-23","local_id":"947","local_nombre":"SALCOBRAND","comuna_nombre":"LA CISTERNA","localidad_nombre":"LA CISTERNA","local_direccion":"GRAN AVENIDA JOSE MIGUEL CARRERA 6701","funcionamiento_hora_apertura":"10:00:00","funcionamiento_hora_cierre":"22:00:00","local_telefono":"+560225243954","local_lat":"-33.518528","local_lng":"-70.659275","funcionamiento_dia":"domingo","fk_region":"7","fk_comuna":"96","fk_localidad":"115"},{"fecha":"07-05-23","local_id":"949","local_nombre":"MANRIQUEZ","comuna_nombre":"LA CISTERNA","localidad_nombre":"LA CISTERNA","local_direccion":"GRAN AVENIDA JOSE MIGUEL CARRERA 7877-7883","funcionamiento_hora_apertura":"09:00:00","funcionamiento_hora_cierre":"22:00:00","local_telefono":"+560225596608","local_lat":"-33.523955","local_lng":"-70.660611","funcionamiento_dia":"domingo","fk_region":"7","fk_comuna":"96","fk_localidad":"115"},{"fecha":"07-05-23","local_id":"950","local_nombre":"SALCOBRAND","comuna_nombre":"LA CISTERNA","localidad_nombre":"LA CISTERNA","local_direccion":"GRAN AVENIDA JOSE MIGUEL CARRERA 8877","funcionamiento_hora_apertura":"08:30:00","funcionamiento_hora_cierre":"22:00:00","local_telefono":"+560225585337","local_lat":"-33.538229","local_lng":"-70.664881","funcionamiento_dia":"domingo","fk_region":"7","fk_comuna":"96","fk_localidad":"115"},{"fecha":"07-05-23","local_id":"951","local_nombre":"AHUMADA","comuna_nombre":"LA FLORIDA","localidad_nombre":"LA FLORIDA NORTE","local_direccion":"AV. AMERICO VESPUCIO 6325. INTERIOR LIDER","funcionamiento_hora_apertura":"09:00:00","funcionamiento_hora_cierre":"22:30:00","local_telefono":"+560226313265","local_lat":"-33.511522","local_lng":"-70.590659","funcionamiento_dia":"domingo","fk_region":"7","fk_comuna":"97","fk_localidad":"116"},{"fecha":"07-05-23","local_id":"952","local_nombre":"AHUMADA","comuna_nombre":"LA FLORIDA","localidad_nombre":"LA FLORIDA NORTE","local_direccion":"AV. AMERICO VESPUCIO 7310. INTERIOR MONTSERRAT","funcionamiento_hora_apertura":"09:00:00","funcionamiento_hora_cierre":"22:00:00","local_telefono":"+560226313252","local_lat":"-33.51988985915592","local_lng":"-70.59560333596801","funcionamiento_dia":"domingo","fk_region":"7","fk_comuna":"97","fk_localidad":"116"},{"fecha":"07-05-23","local_id":"953","local_nombre":"AHUMADA","comuna_nombre":"LA FLORIDA","localidad_nombre":"LA FLORIDA NORTE","local_direccion":"FROILAN ROA 7107. INTERIOR MALL PLAZA VESPUCIO","funcionamiento_hora_apertura":"09:00:00","funcionamiento_hora_cierre":"22:30:00","local_telefono":"+560226313392","local_lat":"-33.516006","local_lng":"-70.5976","funcionamiento_dia":"domingo","fk_region":"7","fk_comuna":"97","fk_localidad":"116"},{"fecha":"07-05-23","local_id":"954","local_nombre":"URGENCIA - AHUMADA","comuna_nombre":"LA FLORIDA","localidad_nombre":"LA FLORIDA URGENCIA","local_direccion":"LA FLORIDA 9497","funcionamiento_hora_apertura":"09:00:00","funcionamiento_hora_cierre":"00:00:00","local_telefono":"+560226313292","local_lat":"-33.543243","local_lng":"-70.570288","funcionamiento_dia":"domingo","fk_region":"7","fk_comuna":"97","fk_localidad":"510"},{"fecha":"07-05-23","local_id":"955","local_nombre":"AHUMADA","comuna_nombre":"LA FLORIDA","localidad_nombre":"LA FLORIDA NORTE","local_direccion":"ROJAS MAGALLANES 3638. CENTRO COMERCIAL LAS FLORES DE TOBALABA","funcionamiento_hora_apertura":"09:00:00","funcionamiento_hora_cierre":"22:00:00","local_telefono":"+560226313550","local_lat":"-33.535917","local_lng":"-70.555482","funcionamiento_dia":"domingo","fk_region":"7","fk_comuna":"97","fk_localidad":"116"},{"fecha":"07-05-23","local_id":"956","local_nombre":"AHUMADA","comuna_nombre":"LA FLORIDA","localidad_nombre":"LA FLORIDA SUR","local_direccion":"SANTA AMALIA 1763. INTERIOR LIDER","funcionamiento_hora_apertura":"09:00:00","funcionamiento_hora_cierre":"22:30:00","local_telefono":"+560222874167","local_lat":"-33.545723","local_lng":"-70.569232","funcionamiento_dia":"domingo","fk_region":"7","fk_comuna":"97","fk_localidad":"376"},{"fecha":"07-05-23","local_id":"957","local_nombre":"AHUMADA","comuna_nombre":"LA FLORIDA","localidad_nombre":"LA FLORIDA NORTE","local_direccion":"VICU\u00d1A MACKENNA 6100. MALL FLORIDA CENTER","funcionamiento_hora_apertura":"09:00:00","funcionamiento_hora_cierre":"22:30:00","local_telefono":"+560222940979","local_lat":"-33.510377","local_lng":"-70.608662","funcionamiento_dia":"domingo","fk_region":"7","fk_comuna":"97","fk_localidad":"116"},{"fecha":"07-05-23","local_id":"958","local_nombre":"AHUMADA","comuna_nombre":"LA FLORIDA","localidad_nombre":"LA FLORIDA NORTE","local_direccion":"AV. VICU\u00d1A MACKENNA 6100. MALL FLORIDA CENTER","funcionamiento_hora_apertura":"10:00:00","funcionamiento_hora_cierre":"22:00:00","local_telefono":"+560226313290","local_lat":"-33.511162","local_lng":"-70.608098","funcionamiento_dia":"domingo","fk_region":"7","fk_comuna":"97","fk_localidad":"116"},{"fecha":"07-05-23","local_id":"960","local_nombre":"AHUMADA","comuna_nombre":"LA FLORIDA","localidad_nombre":"LA FLORIDA NORTE","local_direccion":"AV. VICU\u00d1A MACKENNA 6540 PARADERO 11","funcionamiento_hora_apertura":"09:00:00","funcionamiento_hora_cierre":"22:00:00","local_telefono":"+560222940220","local_lat":"-33.515655","local_lng":"-70.606581","funcionamiento_dia":"domingo","fk_region":"7","fk_comuna":"97","fk_localidad":"116"},{"fecha":"07-05-23","local_id":"961","local_nombre":"AHUMADA","comuna_nombre":"LA FLORIDA","localidad_nombre":"LA FLORIDA NORTE","local_direccion":"AV. VICU\u00d1A MACKENNA 8733 METRO ROJAS MAGALLANES","funcionamiento_hora_apertura":"09:00:00","funcionamiento_hora_cierre":"23:00:00","local_telefono":"+560226313904","local_lat":"-33.535135","local_lng":"-70.593341","funcionamiento_dia":"domingo","fk_region":"7","fk_comuna":"97","fk_localidad":"116"},{"fecha":"07-05-23","local_id":"962","local_nombre":"AHUMADA","comuna_nombre":"LA FLORIDA","localidad_nombre":"LA FLORIDA SUR","local_direccion":"AV. VICU\u00d1A MACKENNA 9587. ESQUINA SANTA AMALIA.","funcionamiento_hora_apertura":"09:00:00","funcionamiento_hora_cierre":"00:00:00","local_telefono":"+560226313201","local_lat":"-33.543827","local_lng":"-70.58935","funcionamiento_dia":"domingo","fk_region":"7","fk_comuna":"97","fk_localidad":"376"},{"fecha":"07-05-23","local_id":"963","local_nombre":"AHUMADA","comuna_nombre":"LA FLORIDA","localidad_nombre":"LA FLORIDA NORTE","local_direccion":"VICU\u00d1A MACKENNA PONIENTE 7196. INTERIOR LIDER","funcionamiento_hora_apertura":"09:00:00","funcionamiento_hora_cierre":"22:00:00","local_telefono":"+560226313222","local_lat":"-33.519608","local_lng":"-70.602804","funcionamiento_dia":"domingo","fk_region":"7","fk_comuna":"97","fk_localidad":"116"},{"fecha":"07-05-23","local_id":"965","local_nombre":"BELEN","comuna_nombre":"LA FLORIDA","localidad_nombre":"LA FLORIDA NORTE","local_direccion":"WALKER MARTINEZ 2051","funcionamiento_hora_apertura":"10:00:00","funcionamiento_hora_cierre":"22:00:00","local_telefono":"+560222962978","local_lat":"-33.522497","local_lng":"-70.574622","funcionamiento_dia":"domingo","fk_region":"7","fk_comuna":"97","fk_localidad":"116"},{"fecha":"07-05-23","local_id":"966","local_nombre":"C.A.","comuna_nombre":"LA FLORIDA","localidad_nombre":"LA FLORIDA NORTE","local_direccion":"AV. SANTA RAQUEL 9306. LOCAL D","funcionamiento_hora_apertura":"09:00:00","funcionamiento_hora_cierre":"21:00:00","local_telefono":"+560228103223","local_lat":"-33.539579","local_lng":"-70.603521","funcionamiento_dia":"domingo","fk_region":"7","fk_comuna":"97","fk_localidad":"116"},{"fecha":"07-05-23","local_id":"968","local_nombre":"URGENCIA - CRUZ VERDE","comuna_nombre":"LA FLORIDA","localidad_nombre":"LA FLORIDA URGENCIA 3","local_direccion":"AV. AMERICO VESPUCIO 7500","funcionamiento_hora_apertura":"00:00:00","funcionamiento_hora_cierre":"00:00:00","local_telefono":"+560222862541","local_lat":"-33.522077","local_lng":"-70.597461","funcionamiento_dia":"domingo","fk_region":"7","fk_comuna":"97","fk_localidad":"512"},{"fecha":"07-05-23","local_id":"969","local_nombre":"CRUZ VERDE","comuna_nombre":"LA FLORIDA","localidad_nombre":"LA FLORIDA NORTE","local_direccion":"ENRIQUE OLIVARES 594","funcionamiento_hora_apertura":"10:30:00","funcionamiento_hora_cierre":"22:00:00","local_telefono":"+560222826569","local_lat":"-33.539606","local_lng":"-70.583173","funcionamiento_dia":"domingo","fk_region":"7","fk_comuna":"97","fk_localidad":"116"},